zip,type,primary_city,state,county,timezone,area_codes,latitude,longitude,irs_estimated_population
99501,STANDARD,Anchorage,AK,Anchorage Municipality,America/Anchorage,907,61.22,-149.85,12210
99502,STANDARD,Anchorage,AK,Anchorage Municipality,America/Anchorage,907,61.16,-149.99,21350
99503,STANDARD,Anchorage,AK,Anchorage Municipality,America/Anchorage,907,61.18,-149.88,12160
99504,STANDARD,Anchorage,AK,Anchorage Municipality,America/Anchorage,907,61.2,-149.75,35600
99505,STANDARD,Jber,AK,Anchorage Municipality,America/Anchorage,907,61.26,-149.6,5020
99506,STANDARD,Jber,AK,Anchorage Municipality,America/Anchorage,907,61.27,-149.79,5590
99507,STANDARD,Anchorage,AK,Anchorage Municipality,America/Anchorage,907,61.14,-149.76,33440
99508,STANDARD,Anchorage,AK,Anchorage Municipality,America/Anchorage,907,61.2,-149.82,27860
99513,STANDARD,Anchorage,AK,Anchorage Municipality,America/Anchorage,907,61.21,-149.89,0
99515,STANDARD,Anchorage,AK,Anchorage Municipality,America/Anchorage,907,61.11,-149.9,20840
99516,STANDARD,Anchorage,AK,Anchorage Municipality,America/Anchorage,907,61.08,-149.7,19800
99517,STANDARD,Anchorage,AK,Anchorage Municipality,America/Anchorage,907,61.19,-149.94,13710
99518,STANDARD,Anchorage,AK,Anchorage Municipality,America/Anchorage,907,61.15,-149.88,8720
99529,STANDARD,Anchorage,AK,Municipality of Anchorage,America/Anchorage,907,61.18,-149.98,0
99530,STANDARD,Anchorage,AK,Municipality of Anchorage,America/Anchorage,907,61.26,-149.97,0
99540,STANDARD,Indian,AK,Anchorage Municipality,America/Anchorage,907,61,-149.43,220
99556,STANDARD,Anchor Point,AK,Kenai Peninsula Borough,America/Anchorage,907,59.82,-151.59,2110
99567,STANDARD,Chugiak,AK,Anchorage Municipality,America/Anchorage,907,61.41,-149.17,8330
99568,STANDARD,Clam Gulch,AK,Kenai Peninsula Borough,America/Anchorage,907,60.21,-151.4,260
99572,STANDARD,Cooper Landing,AK,Kenai Peninsula Borough,America/Anchorage,907,60.49,-149.82,400
99573,STANDARD,Copper Center,AK,Valdez-Cordova Census Area,America/Anchorage,907,61.68,-145.14,800
99577,STANDARD,Eagle River,AK,Anchorage Municipality,America/Anchorage,907,61.21,-149.25,25860
99586,STANDARD,Gakona,AK,Valdez-Cordova Census Area,America/Anchorage,907,62.83,-143.43,380
99588,STANDARD,Glennallen,AK,Valdez-Cordova Census Area,America/Anchorage,907,62.1,-145.53,1270
99599,STANDARD,Anchorage,AK,Municipality of Anchorage,America/Anchorage,907,61.21,-149.86,0
99603,STANDARD,Homer,AK,Kenai Peninsula Borough,America/Anchorage,907,59.4,-151.32,10290
99605,STANDARD,Hope,AK,Kenai Peninsula Borough,America/Anchorage,907,60.84,-149.4,170
99610,STANDARD,Kasilof,AK,Kenai Peninsula Borough,America/Anchorage,907,60.28,-151.26,2140
99611,STANDARD,Kenai,AK,Kenai Peninsula Borough,America/Anchorage,907,60.66,-150.9,12660
99615,STANDARD,Kodiak,AK,Kodiak Island Borough,America/Anchorage,907,57.79,-152.4,11960
99623,STANDARD,Wasilla,AK,,America/Anchorage,907,61.61,-149.58,0
99631,STANDARD,Moose Pass,AK,Kenai Peninsula Borough,America/Anchorage,907,60.57,-149.45,260
99639,STANDARD,Ninilchik,AK,Kenai Peninsula Borough,America/Anchorage,907,60.07,-151.42,1150
99645,STANDARD,Palmer,AK,Matanuska-Susitna Borough,America/Anchorage,907,61.62,-148.98,27290
99654,STANDARD,Wasilla,AK,Matanuska-Susitna Borough,America/Anchorage,907,61.52,-149.57,32030
99664,STANDARD,Seward,AK,Kenai Peninsula Borough,America/Anchorage,907,60.05,-149.33,4010
99669,STANDARD,Soldotna,AK,Kenai Peninsula Borough,America/Anchorage,907,60.32,-150.79,15040
99672,STANDARD,Sterling,AK,Kenai Peninsula Borough,America/Anchorage,907,60.54,-150.79,3200
99674,STANDARD,Sutton,AK,Matanuska-Susitna Borough,America/Anchorage,907,61.74,-148.22,1370
99676,STANDARD,Talkeetna,AK,Matanuska-Susitna Borough,America/Anchorage,907,62.45,-149.79,1710
99686,STANDARD,Valdez,AK,Valdez-Cordova Census Area,America/Anchorage,907,61.15,-146.81,3530
99688,STANDARD,Willow,AK,Matanuska-Susitna Borough,America/Anchorage,907,61.89,-149.73,2610
99701,STANDARD,Fairbanks,AK,Fairbanks North Star Borough,America/Anchorage,907,64.81,-147.72,13900
99702,STANDARD,Eielson AFB,AK,Fairbanks North Star Borough,America/Anchorage,907,64.67,-147.04,2960
99703,STANDARD,Fort Wainwright,AK,Fairbanks North Star Borough,America/Anchorage,907,64.83,-147.62,6410
99704,STANDARD,Clear,AK,Denali Borough,America/Anchorage,907,64.3,-149.15,204
99705,STANDARD,North Pole,AK,Fairbanks North Star Borough,America/Anchorage,907,64.77,-147.33,18290
99709,STANDARD,Fairbanks,AK,Fairbanks North Star Borough,America/Anchorage,907,64.9,-148.16,19480
99712,STANDARD,Fairbanks,AK,Fairbanks North Star Borough,America/Anchorage,907,64.93,-146.61,8720
99714,STANDARD,Salcha,AK,Fairbanks North Star Borough,America/Anchorage,907,64.37,-146.59,940
99737,STANDARD,Delta Junction,AK,Southeast Fairbanks Census Area,America/Anchorage,907,63.7,-144.89,3930
99743,STANDARD,Healy,AK,Denali Borough,America/Anchorage,907,63.68,-150.03,1050
99760,STANDARD,Nenana,AK,Yukon-Koyukuk Census Area,America/Anchorage,907,64.47,-148.57,670
99779,STANDARD,Tok,AK,Southeast Fairbanks Census Area,America/Anchorage,907,63.13,-142.53,0
99780,STANDARD,Tok,AK,Southeast Fairbanks Census Area,America/Anchorage,907,63.18,-143.1,1540
99790,STANDARD,Fairbanks,AK,Yukon-Koyukuk Census Area,America/Anchorage,907,65.39,-148.33,0
99801,STANDARD,Juneau,AK,Juneau City and Borough,America/Juneau,907,58.58,-134.77,21790
99824,STANDARD,Douglas,AK,Juneau City and Borough,America/Juneau,907,58.26,-134.4,1880
99827,STANDARD,Haines,AK,Haines Borough,America/Juneau,907,59.16,-135.86,2290
99835,STANDARD,Sitka,AK,Sitka City and Borough,America/Sitka,907,56.73,-135,7590
99901,STANDARD,Ketchikan,AK,Ketchikan Gateway Borough,America/Sitka,907,55.61,-131.58,11270
35004,STANDARD,Moody,AL,St. Clair County,America/Chicago,205,33.59,-86.49,10360
35005,STANDARD,Adamsville,AL,Jefferson County,America/Chicago,205,33.59,-86.95,6060
35006,STANDARD,Adger,AL,Jefferson County,America/Chicago,205,33.42,-87.19,2520
35007,STANDARD,Alabaster,AL,Shelby County,America/Chicago,205,33.22,-86.82,25020
35010,STANDARD,Alexander City,AL,Tallapoosa County,America/Chicago,256,32.92,-85.93,15680
35014,STANDARD,Alpine,AL,Talladega County,America/Chicago,256,33.36,-86.26,3160
35016,STANDARD,Arab,AL,Marshall County,America/Chicago,256,34.32,-86.5,14670
35019,STANDARD,Baileyton,AL,Cullman County,America/Chicago,,34.26,-86.61,1990
35020,STANDARD,Bessemer,AL,Jefferson County,America/Chicago,205,33.37,-86.96,17600
35022,STANDARD,Bessemer,AL,Jefferson County,America/Chicago,205,33.32,-86.97,19470
35023,STANDARD,Bessemer,AL,Jefferson County,America/Chicago,205,33.43,-86.99,19960
35031,STANDARD,Blountsville,AL,Blount County,America/Chicago,205,34.08,-86.58,6380
35033,STANDARD,Bremen,AL,Cullman County,America/Chicago,256,33.93,-87.03,2970
35034,STANDARD,Brent,AL,Bibb County,America/Chicago,205,32.94,-87.17,2800
35035,STANDARD,Brierfield,AL,Bibb County,America/Chicago,,33.06,-86.98,1140
35040,STANDARD,Calera,AL,Shelby County,America/Chicago,205,33.1,-86.75,17020
35042,STANDARD,Centreville,AL,Bibb County,America/Chicago,205,32.95,-87.13,4890
35043,STANDARD,Chelsea,AL,Shelby County,America/Chicago,205,33.31,-86.66,13040
35044,STANDARD,Childersburg,AL,Talladega County,America/Chicago,256,33.27,-86.35,6130
35045,STANDARD,Clanton,AL,Chilton County,America/Chicago,205,32.84,-86.62,11940
35046,STANDARD,Clanton,AL,Chilton County,America/Chicago,205,32.93,-86.53,4710
35049,STANDARD,Cleveland,AL,Blount County,America/Chicago,205,33.99,-86.57,3420
35051,STANDARD,Columbiana,AL,Shelby County,America/Chicago,205,33.17,-86.6,7150
35053,STANDARD,Crane Hill,AL,Cullman County,America/Chicago,256,34.07,-87.05,2350
35054,STANDARD,Cropwell,AL,St. Clair County,America/Chicago,"256,205",33.5,-86.34,3740
35055,STANDARD,Cullman,AL,Cullman County,America/Chicago,256,34.17,-86.83,16570
35057,STANDARD,Cullman,AL,Cullman County,America/Chicago,256,34.18,-86.93,11630
35058,STANDARD,Cullman,AL,Cullman County,America/Chicago,256,34.23,-86.74,8860
35061,STANDARD,Dolomite,AL,Jefferson County,America/Chicago,205,33.47,-86.96,1090
35062,STANDARD,Dora,AL,Jefferson County,America/Chicago,205,33.73,-87.08,7110
35063,STANDARD,Empire,AL,Walker County,America/Chicago,,33.84,-87.01,2640
35064,STANDARD,Fairfield,AL,Jefferson County,America/Chicago,205,33.47,-86.91,7380
35068,STANDARD,Fultondale,AL,Jefferson County,America/Chicago,205,33.61,-86.8,7370
35071,STANDARD,Gardendale,AL,Jefferson County,America/Chicago,205,33.66,-86.8,15080
35072,STANDARD,Goodwater,AL,Coosa County,America/Chicago,"256,938",33.06,-86.05,3640
35073,STANDARD,Graysville,AL,Jefferson County,America/Chicago,205,33.62,-86.96,1790
35077,STANDARD,Hanceville,AL,Cullman County,America/Chicago,256,34.06,-86.76,10810
35078,STANDARD,Harpersville,AL,Shelby County,America/Chicago,205,33.34,-86.43,1800
35079,STANDARD,Hayden,AL,Blount County,America/Chicago,205,33.89,-86.75,8030
35080,STANDARD,Helena,AL,Shelby County,America/Chicago,205,33.28,-86.85,18580
35083,STANDARD,Holly Pond,AL,Cullman County,America/Chicago,256,34.17,-86.61,2640
35085,STANDARD,Jemison,AL,Chilton County,America/Chicago,205,32.96,-86.74,7260
35087,STANDARD,Joppa,AL,Cullman County,America/Chicago,,34.31,-86.58,1870
35089,STANDARD,Kellyton,AL,Coosa County,America/Chicago,256,32.97,-86.09,1470
35091,STANDARD,Kimberly,AL,Jefferson County,America/Chicago,205,33.78,-86.79,3140
35094,STANDARD,Leeds,AL,Jefferson County,America/Chicago,205,33.54,-86.56,12600
35096,STANDARD,Lincoln,AL,Talladega County,America/Chicago,205,33.59,-86.13,7260
35097,STANDARD,Locust Fork,AL,Blount County,America/Chicago,205,33.9,-86.62,1540
35098,STANDARD,Logan,AL,Cullman County,America/Chicago,256,34.12,-87.05,1190
35111,STANDARD,Mc Calla,AL,Tuscaloosa County,America/Chicago,205,33.28,-87.12,14950
35114,STANDARD,Alabaster,AL,Shelby County,America/Chicago,205,33.22,-86.87,7070
35115,STANDARD,Montevallo,AL,Shelby County,America/Chicago,205,33.1,-86.85,10970
35116,STANDARD,Morris,AL,Jefferson County,America/Chicago,205,33.74,-86.8,4390
35117,STANDARD,Mount Olive,AL,Jefferson County,America/Chicago,205,33.67,-86.89,5620
35118,STANDARD,Mulga,AL,Jefferson County,America/Chicago,205,33.54,-86.97,2730
35120,STANDARD,Odenville,AL,St. Clair County,America/Chicago,205,33.68,-86.39,14210
35121,STANDARD,Oneonta,AL,Blount County,America/Chicago,205,33.95,-86.47,12700
35124,STANDARD,Pelham,AL,Shelby County,America/Chicago,205,33.3,-86.79,23510
35125,STANDARD,Pell City,AL,St. Clair County,America/Chicago,205,33.63,-86.29,8980
35126,STANDARD,Pinson,AL,Jefferson County,America/Chicago,205,33.72,-86.65,18740
35127,STANDARD,Pleasant Grove,AL,Jefferson County,America/Chicago,205,33.48,-86.97,8230
35128,STANDARD,Pell City,AL,St. Clair County,America/Chicago,205,33.56,-86.27,8730
35130,STANDARD,Quinton,AL,Walker County,America/Chicago,205,33.64,-87.14,2440
35131,STANDARD,Ragland,AL,St. Clair County,America/Chicago,205,33.74,-86.13,3240
35133,STANDARD,Remlap,AL,Blount County,America/Chicago,205,33.84,-86.62,3400
35135,STANDARD,Riverside,AL,St. Clair County,America/Chicago,,33.62,-86.2,1650
35136,STANDARD,Rockford,AL,Coosa County,America/Chicago,256,32.88,-86.21,1330
35143,STANDARD,Shelby,AL,Shelby County,America/Chicago,205,33.07,-86.56,2500
35146,STANDARD,Springville,AL,St. Clair County,America/Chicago,205,33.77,-86.47,10450
35147,STANDARD,Sterrett,AL,Shelby County,America/Chicago,205,33.43,-86.5,5020
35148,STANDARD,Sumiton,AL,Walker County,America/Chicago,205,33.75,-87.04,2150
35150,STANDARD,Sylacauga,AL,Talladega County,America/Chicago,256,33.17,-86.26,13810
35151,STANDARD,Sylacauga,AL,Talladega County,America/Chicago,256,33.08,-86.39,5900
35160,STANDARD,Talladega,AL,Talladega County,America/Chicago,256,33.43,-86.09,18900
35171,STANDARD,Thorsby,AL,Chilton County,America/Chicago,205,32.91,-86.71,2960
35172,STANDARD,Trafford,AL,Blount County,America/Chicago,,33.82,-86.74,2400
35173,STANDARD,Trussville,AL,Jefferson County,America/Chicago,205,33.63,-86.59,28960
35175,STANDARD,Union Grove,AL,Marshall County,America/Chicago,256,34.4,-86.44,4330
35176,STANDARD,Vandiver,AL,Shelby County,America/Chicago,205,33.48,-86.5,710
35178,STANDARD,Vincent,AL,Shelby County,America/Chicago,205,33.38,-86.4,2950
35179,STANDARD,Vinemont,AL,Cullman County,America/Chicago,256,34.26,-86.94,8160
35180,STANDARD,Warrior,AL,Jefferson County,America/Chicago,205,33.81,-86.8,12040
35183,STANDARD,Weogufka,AL,Coosa County,America/Chicago,,33.02,-86.35,510
35184,STANDARD,West Blocton,AL,Bibb County,America/Chicago,205,33.11,-87.12,4600
35186,STANDARD,Wilsonville,AL,Shelby County,America/Chicago,205,33.23,-86.47,4510
35188,STANDARD,Woodstock,AL,Bibb County,America/Chicago,205,33.16,-87.17,2490
35203,STANDARD,Birmingham,AL,Jefferson County,America/Chicago,205,33.52,-86.81,2220
35204,STANDARD,Birmingham,AL,Jefferson County,America/Chicago,205,33.52,-86.84,6200
35205,STANDARD,Birmingham,AL,Jefferson County,America/Chicago,205,33.49,-86.81,10560
35206,STANDARD,Birmingham,AL,Jefferson County,America/Chicago,205,33.57,-86.71,11970
35207,STANDARD,Birmingham,AL,Jefferson County,America/Chicago,205,33.57,-86.82,6110
35208,STANDARD,Birmingham,AL,Jefferson County,America/Chicago,205,33.5,-86.88,10230
35209,STANDARD,Birmingham,AL,Jefferson County,America/Chicago,205,33.47,-86.81,22120
35210,STANDARD,Birmingham,AL,Jefferson County,America/Chicago,205,33.54,-86.67,11780
35211,STANDARD,Birmingham,AL,Jefferson County,America/Chicago,205,33.46,-86.86,17910
35212,STANDARD,Birmingham,AL,Jefferson County,America/Chicago,205,33.55,-86.75,8330
35213,STANDARD,Birmingham,AL,Jefferson County,America/Chicago,205,33.51,-86.74,13270
35214,STANDARD,Birmingham,AL,Jefferson County,America/Chicago,205,33.58,-86.89,15000
35215,STANDARD,Birmingham,AL,Jefferson County,America/Chicago,205,33.65,-86.71,39040
35216,STANDARD,Birmingham,AL,Jefferson County,America/Chicago,205,33.42,-86.79,30860
35217,STANDARD,Birmingham,AL,Jefferson County,America/Chicago,205,33.61,-86.76,9770
35218,STANDARD,Birmingham,AL,Jefferson County,America/Chicago,205,33.51,-86.89,4580
35221,STANDARD,Birmingham,AL,Jefferson County,America/Chicago,205,33.45,-86.9,3070
35222,STANDARD,Birmingham,AL,Jefferson County,America/Chicago,205,33.52,-86.77,6560
35223,STANDARD,Birmingham,AL,Jefferson County,America/Chicago,205,33.49,-86.73,11440
35224,STANDARD,Birmingham,AL,Jefferson County,America/Chicago,205,33.52,-86.94,3900
35226,STANDARD,Birmingham,AL,Jefferson County,America/Chicago,205,33.4,-86.85,35620
35228,STANDARD,Birmingham,AL,Jefferson County,America/Chicago,205,33.46,-86.92,7630
35233,STANDARD,Birmingham,AL,Jefferson County,America/Chicago,205,33.52,-86.79,1140
35234,STANDARD,Birmingham,AL,Jefferson County,America/Chicago,205,33.54,-86.8,3250
35235,STANDARD,Birmingham,AL,Jefferson County,America/Chicago,205,33.62,-86.65,16920
35242,STANDARD,Birmingham,AL,Shelby County,America/Chicago,205,33.42,-86.67,51930
35243,STANDARD,Birmingham,AL,Jefferson County,America/Chicago,205,33.44,-86.74,18740
35244,STANDARD,Birmingham,AL,Jefferson County,America/Chicago,205,33.35,-86.83,34210
35401,STANDARD,Tuscaloosa,AL,Tuscaloosa County,America/Chicago,205,33.17,-87.62,16690
35404,STANDARD,Tuscaloosa,AL,Tuscaloosa County,America/Chicago,205,33.22,-87.48,14120
35405,STANDARD,Tuscaloosa,AL,Tuscaloosa County,America/Chicago,205,33.12,-87.54,35090
35406,STANDARD,Tuscaloosa,AL,Tuscaloosa County,America/Chicago,205,33.23,-87.54,14890
35441,STANDARD,Akron,AL,Hale County,America/Chicago,205,32.87,-87.73,940
35442,STANDARD,Aliceville,AL,Pickens County,America/Chicago,205,33.12,-88.15,3800
35443,STANDARD,Boligee,AL,Greene County,America/Chicago,205,32.75,-88.02,1330
35444,STANDARD,Brookwood,AL,Tuscaloosa County,America/Chicago,,33.24,-87.32,3360
35446,STANDARD,Buhl,AL,Tuscaloosa County,America/Chicago,205,33.25,-87.73,1760
35447,STANDARD,Carrollton,AL,Pickens County,America/Chicago,205,33.26,-88.09,2460
35452,STANDARD,Coker,AL,Tuscaloosa County,America/Chicago,205,33.28,-87.67,3400
35453,STANDARD,Cottondale,AL,Tuscaloosa County,America/Chicago,205,33.16,-87.36,9830
35456,STANDARD,Duncanville,AL,Tuscaloosa County,America/Chicago,205,33.06,-87.42,3660
35457,STANDARD,Echola,AL,Tuscaloosa County,America/Chicago,205,33.3,-87.77,92
35458,STANDARD,Elrod,AL,Tuscaloosa County,America/Chicago,205,33.4,-87.81,520
35459,STANDARD,Emelle,AL,Sumter County,America/Chicago,205,32.72,-88.31,610
35460,STANDARD,Epes,AL,Sumter County,America/Chicago,205,32.69,-88.12,460
35461,STANDARD,Ethelsville,AL,Pickens County,America/Chicago,205,33.41,-88.21,1380
35462,STANDARD,Eutaw,AL,Greene County,America/Chicago,205,32.84,-87.89,3600
35463,STANDARD,Fosters,AL,Tuscaloosa County,America/Chicago,205,33.06,-87.68,1630
35464,STANDARD,Gainesville,AL,Sumter County,America/Chicago,205,32.81,-88.15,340
35466,STANDARD,Gordo,AL,Pickens County,America/Chicago,205,33.32,-87.9,4670
35469,STANDARD,Knoxville,AL,Greene County,America/Chicago,205,32.97,-87.8,250
35470,STANDARD,Livingston,AL,Sumter County,America/Chicago,205,32.59,-88.18,3330
35473,STANDARD,Northport,AL,Tuscaloosa County,America/Chicago,205,33.27,-87.58,13930
35474,STANDARD,Moundville,AL,Hale County,America/Chicago,205,32.99,-87.63,6180
35475,STANDARD,Northport,AL,Tuscaloosa County,America/Chicago,205,33.43,-87.59,15760
35476,STANDARD,Northport,AL,Tuscaloosa County,America/Chicago,205,33.24,-87.59,6490
35480,STANDARD,Ralph,AL,Tuscaloosa County,America/Chicago,205,33.05,-87.76,1550
35481,STANDARD,Reform,AL,Pickens County,America/Chicago,205,33.37,-88.01,2550
35490,STANDARD,Vance,AL,Tuscaloosa County,America/Chicago,205,33.22,-87.24,4030
35501,STANDARD,Jasper,AL,Walker County,America/Chicago,205,33.82,-87.29,7170
35503,STANDARD,Jasper,AL,Walker County,America/Chicago,205,33.94,-87.3,6890
35504,STANDARD,Jasper,AL,Walker County,America/Chicago,205,33.85,-87.27,10800
35540,STANDARD,Addison,AL,Winston County,America/Chicago,256,34.19,-87.17,2010
35541,STANDARD,Arley,AL,Winston County,America/Chicago,,34.08,-87.21,2850
35542,STANDARD,Bankston,AL,Fayette County,America/Chicago,205,33.7,-87.68,960
35543,STANDARD,Bear Creek,AL,Marion County,America/Chicago,205,34.26,-87.71,820
35544,STANDARD,Beaverton,AL,Lamar County,America/Chicago,205,33.93,-88.02,470
35546,STANDARD,Berry,AL,Fayette County,America/Chicago,205,33.66,-87.6,3340
35548,STANDARD,Brilliant,AL,Marion County,America/Chicago,205,34.01,-87.77,1130
35549,STANDARD,Carbon Hill,AL,Walker County,America/Chicago,205,33.89,-87.52,2760
35550,STANDARD,Cordova,AL,Walker County,America/Chicago,205,33.76,-87.19,3770
35552,STANDARD,Detroit,AL,Lamar County,America/Chicago,205,34.07,-88.14,780
35553,STANDARD,Double Springs,AL,Winston County,America/Chicago,"256,205",34.14,-87.4,3480
35554,STANDARD,Eldridge,AL,Fayette County,America/Chicago,,33.89,-87.67,880
35555,STANDARD,Fayette,AL,Fayette County,America/Chicago,205,33.69,-87.83,7460
35563,STANDARD,Guin,AL,Marion County,America/Chicago,205,33.96,-87.91,3220
35564,STANDARD,Hackleburg,AL,Marion County,America/Chicago,205,34.27,-87.83,1720
35565,STANDARD,Haleyville,AL,Winston County,America/Chicago,205,34.23,-87.61,9740
35570,STANDARD,Hamilton,AL,Marion County,America/Chicago,205,34.14,-87.98,8090
35571,STANDARD,Hodges,AL,Franklin County,America/Chicago,,34.32,-87.92,710
35572,STANDARD,Houston,AL,Winston County,America/Chicago,256,34.12,-87.25,740
35574,STANDARD,Kennedy,AL,Lamar County,America/Chicago,205,33.58,-87.98,1130
35575,STANDARD,Lynn,AL,Winston County,America/Chicago,205,34.04,-87.54,700
35576,STANDARD,Millport,AL,Lamar County,America/Chicago,205,33.55,-88.08,2430
35578,STANDARD,Nauvoo,AL,Walker County,America/Chicago,205,33.98,-87.48,3840
35579,STANDARD,Oakman,AL,Walker County,America/Chicago,205,33.71,-87.38,2330
35580,STANDARD,Parrish,AL,Walker County,America/Chicago,205,33.73,-87.28,3020
35581,STANDARD,Phil Campbell,AL,Franklin County,America/Chicago,205,34.35,-87.7,4040
35582,STANDARD,Red Bay,AL,Franklin County,America/Chicago,"256,938",34.43,-88.13,3290
35585,STANDARD,Spruce Pine,AL,Franklin County,America/Chicago,,34.42,-87.83,1290
35586,STANDARD,Sulligent,AL,Lamar County,America/Chicago,205,33.89,-88.13,3320
35587,STANDARD,Townley,AL,Walker County,America/Chicago,205,33.83,-87.44,630
35592,STANDARD,Vernon,AL,Lamar County,America/Chicago,205,33.75,-88.11,3590
35593,STANDARD,Vina,AL,Franklin County,America/Chicago,,34.37,-88.05,1390
35594,STANDARD,Winfield,AL,Marion County,America/Chicago,205,33.92,-87.79,6130
35601,STANDARD,Decatur,AL,Morgan County,America/Chicago,256,34.57,-86.98,26200
35603,STANDARD,Decatur,AL,Morgan County,America/Chicago,256,34.54,-86.97,28070
35610,STANDARD,Anderson,AL,Lauderdale County,America/Chicago,256,34.91,-87.27,1490
35611,STANDARD,Athens,AL,Limestone County,America/Chicago,256,34.78,-86.95,20390
35613,STANDARD,Athens,AL,Limestone County,America/Chicago,256,34.82,-86.88,21430
35614,STANDARD,Athens,AL,Limestone County,America/Chicago,256,34.85,-86.99,6320
35616,STANDARD,Cherokee,AL,Colbert County,America/Chicago,256,34.75,-87.96,2810
35618,STANDARD,Courtland,AL,Lawrence County,America/Chicago,256,34.66,-87.31,1410
35619,STANDARD,Danville,AL,Morgan County,America/Chicago,256,34.39,-87.12,4330
35620,STANDARD,Elkmont,AL,Limestone County,America/Chicago,256,34.92,-86.97,8170
35621,STANDARD,Eva,AL,Morgan County,America/Chicago,256,34.33,-86.75,2590
35622,STANDARD,Falkville,AL,Morgan County,America/Chicago,256,34.37,-86.9,5730
35630,STANDARD,Florence,AL,Lauderdale County,America/Chicago,256,34.82,-87.66,22380
35633,STANDARD,Florence,AL,Lauderdale County,America/Chicago,256,34.88,-87.8,17230
35634,STANDARD,Florence,AL,Lauderdale County,America/Chicago,256,34.92,-87.61,9250
35640,STANDARD,Hartselle,AL,Morgan County,America/Chicago,256,34.43,-86.93,22620
35643,STANDARD,Hillsboro,AL,Lawrence County,America/Chicago,256,34.63,-87.18,2460
35645,STANDARD,Killen,AL,Lauderdale County,America/Chicago,256,34.86,-87.52,11850
35646,STANDARD,Leighton,AL,Colbert County,America/Chicago,256,34.69,-87.53,3510
35647,STANDARD,Lester,AL,Limestone County,America/Chicago,256,34.98,-87.14,990
35648,STANDARD,Lexington,AL,Lauderdale County,America/Chicago,256,34.96,-87.37,3170
35650,STANDARD,Moulton,AL,Lawrence County,America/Chicago,256,34.48,-87.28,11290
35651,STANDARD,Mount Hope,AL,Lawrence County,America/Chicago,256,34.4,-87.44,900
35652,STANDARD,Rogersville,AL,Lauderdale County,America/Chicago,256,34.82,-87.28,6990
35653,STANDARD,Russellville,AL,Franklin County,America/Chicago,256,34.5,-87.72,9190
35654,STANDARD,Russellville,AL,Franklin County,America/Chicago,256,34.5,-87.63,6420
35660,STANDARD,Sheffield,AL,Colbert County,America/Chicago,256,34.75,-87.7,7060
35661,STANDARD,Muscle Shoals,AL,Colbert County,America/Chicago,256,34.74,-87.64,15820
35670,STANDARD,Somerville,AL,Morgan County,America/Chicago,256,34.47,-86.8,6660
35671,STANDARD,Tanner,AL,Limestone County,America/Chicago,256,34.66,-86.95,1990
35672,STANDARD,Town Creek,AL,Lawrence County,America/Chicago,256,34.67,-87.4,4830
35673,STANDARD,Trinity,AL,Morgan County,America/Chicago,,34.59,-87.08,7350
35674,STANDARD,Tuscumbia,AL,Colbert County,America/Chicago,256,34.72,-87.7,16290
35677,STANDARD,Waterloo,AL,Lauderdale County,America/Chicago,256,34.91,-88.06,1500
35739,STANDARD,Ardmore,AL,Limestone County,America/Chicago,256,34.98,-86.83,4750
35740,STANDARD,Bridgeport,AL,Jackson County,America/Chicago,256,34.94,-85.71,2590
35741,STANDARD,Brownsboro,AL,Madison County,America/Chicago,256,34.72,-86.48,3130
35744,STANDARD,Dutton,AL,Jackson County,America/Chicago,256,34.6,-85.91,1970
35745,STANDARD,Estillfork,AL,Jackson County,America/Chicago,256,34.91,-86.2,210
35746,STANDARD,Fackler,AL,Jackson County,America/Chicago,256,34.83,-85.98,680
35747,STANDARD,Grant,AL,Marshall County,America/Chicago,256,34.51,-86.25,5140
35748,STANDARD,Gurley,AL,Madison County,America/Chicago,256,34.7,-86.37,7230
35749,STANDARD,Harvest,AL,Madison County,America/Chicago,,34.85,-86.74,25090
35750,STANDARD,Hazel Green,AL,Madison County,America/Chicago,256,34.92,-86.56,12520
35751,STANDARD,Hollytree,AL,Jackson County,America/Chicago,256,34.79,-86.25,190
35752,STANDARD,Hollywood,AL,Jackson County,America/Chicago,256,34.71,-85.96,1600
35754,STANDARD,Laceys Spring,AL,Morgan County,America/Chicago,256,34.53,-86.6,5300
35755,STANDARD,Langston,AL,Marshall County,America/Chicago,,34.53,-86.09,520
35756,STANDARD,Madison,AL,Limestone County,America/Chicago,256,34.64,-86.82,21750
35757,STANDARD,Madison,AL,Madison County,America/Chicago,256,34.78,-86.75,15830
35758,STANDARD,Madison,AL,Madison County,America/Chicago,256,34.7,-86.74,44120
35759,STANDARD,Meridianville,AL,Madison County,America/Chicago,256,34.87,-86.57,9600
35760,STANDARD,New Hope,AL,Madison County,America/Chicago,256,34.53,-86.41,4230
35761,STANDARD,New Market,AL,Madison County,America/Chicago,256,34.9,-86.42,11460
35763,STANDARD,Owens Cross Roads,AL,Madison County,America/Chicago,256,34.6,-86.46,21320
35764,STANDARD,Paint Rock,AL,Jackson County,America/Chicago,256,34.73,-86.31,440
35765,STANDARD,Pisgah,AL,Jackson County,America/Chicago,256,34.68,-85.84,2920
35766,STANDARD,Princeton,AL,Jackson County,America/Chicago,256,34.83,-86.22,184
35768,STANDARD,Scottsboro,AL,Jackson County,America/Chicago,256,34.77,-86.1,9140
35769,STANDARD,Scottsboro,AL,Jackson County,America/Chicago,256,34.64,-86.04,8380
35771,STANDARD,Section,AL,Jackson County,America/Chicago,256,34.58,-85.98,2880
35772,STANDARD,Stevenson,AL,Jackson County,America/Chicago,256,34.87,-85.83,3660
35773,STANDARD,Toney,AL,Madison County,America/Chicago,,34.9,-86.72,11790
35774,STANDARD,Trenton,AL,Jackson County,America/Chicago,256,34.77,-86.23,105
35775,STANDARD,Valhermoso Springs,AL,Morgan County,America/Chicago,256,34.55,-86.69,790
35776,STANDARD,Woodville,AL,Jackson County,America/Chicago,,34.62,-86.28,2940
35801,STANDARD,Huntsville,AL,Madison County,America/Chicago,256,34.73,-86.56,18540
35802,STANDARD,Huntsville,AL,Madison County,America/Chicago,256,34.67,-86.56,20390
35803,STANDARD,Huntsville,AL,Madison County,America/Chicago,256,34.56,-86.52,26670
35805,STANDARD,Huntsville,AL,Madison County,America/Chicago,256,34.7,-86.62,15010
35806,STANDARD,Huntsville,AL,Madison County,America/Chicago,256,34.76,-86.69,21230
35808,STANDARD,Huntsville,AL,Madison County,America/Chicago,256,34.63,-86.66,940
35810,STANDARD,Huntsville,AL,Madison County,America/Chicago,256,34.8,-86.6,24700
35811,STANDARD,Huntsville,AL,Madison County,America/Chicago,256,34.8,-86.51,25090
35813,STANDARD,Huntsville,AL,Madison County,America/Chicago,256,34.7,-86.62,156
35816,STANDARD,Huntsville,AL,Madison County,America/Chicago,256,34.74,-86.63,9450
35824,STANDARD,Huntsville,AL,Madison County,America/Chicago,256,34.64,-86.75,8210
35901,STANDARD,Gadsden,AL,Etowah County,America/Chicago,256,34.01,-86.01,14430
35903,STANDARD,Gadsden,AL,Etowah County,America/Chicago,256,34.02,-85.86,13930
35904,STANDARD,Gadsden,AL,Etowah County,America/Chicago,256,34.08,-85.99,10370
35905,STANDARD,Gadsden,AL,Etowah County,America/Chicago,256,33.96,-85.92,5530
35906,STANDARD,Rainbow City,AL,Etowah County,America/Chicago,256,33.92,-86.08,8770
35907,STANDARD,Gadsden,AL,Etowah County,America/Chicago,256,33.89,-86.02,8250
35950,STANDARD,Albertville,AL,Marshall County,America/Chicago,256,34.26,-86.2,18830
35951,STANDARD,Albertville,AL,Marshall County,America/Chicago,256,34.34,-86.16,10990
35952,STANDARD,Altoona,AL,Etowah County,America/Chicago,205,34.03,-86.31,5930
35953,STANDARD,Ashville,AL,St. Clair County,America/Chicago,205,33.83,-86.26,6220
35954,STANDARD,Attalla,AL,Etowah County,America/Chicago,256,34.01,-86.1,9370
35956,STANDARD,Boaz,AL,Etowah County,America/Chicago,256,34.15,-86.15,7330
35957,STANDARD,Boaz,AL,Marshall County,America/Chicago,256,34.2,-86.15,13150
35958,STANDARD,Bryant,AL,Jackson County,America/Chicago,256,34.95,-85.64,2520
35959,STANDARD,Cedar Bluff,AL,Cherokee County,America/Chicago,256,34.22,-85.59,3780
35960,STANDARD,Centre,AL,Cherokee County,America/Chicago,256,34.15,-85.67,7830
35961,STANDARD,Collinsville,AL,DeKalb County,America/Chicago,256,34.26,-85.86,4790
35962,STANDARD,Crossville,AL,DeKalb County,America/Chicago,256,34.28,-85.99,5900
35963,STANDARD,Dawson,AL,DeKalb County,America/Chicago,256,34.35,-85.92,1310
35966,STANDARD,Flat Rock,AL,Jackson County,America/Chicago,256,34.8,-85.73,2800
35967,STANDARD,Fort Payne,AL,DeKalb County,America/Chicago,256,34.45,-85.69,13350
35968,STANDARD,Fort Payne,AL,DeKalb County,America/Chicago,256,34.55,-85.74,4530
35971,STANDARD,Fyffe,AL,DeKalb County,America/Chicago,256,34.45,-85.9,3750
35972,STANDARD,Gallant,AL,Etowah County,America/Chicago,205,33.99,-86.22,1080
35973,STANDARD,Gaylesville,AL,Cherokee County,America/Chicago,256,34.26,-85.55,2170
35974,STANDARD,Geraldine,AL,DeKalb County,America/Chicago,256,34.36,-86,1520
35975,STANDARD,Groveoak,AL,DeKalb County,America/Chicago,256,34.43,-86.04,790
35976,STANDARD,Guntersville,AL,Marshall County,America/Chicago,256,34.35,-86.27,13900
35978,STANDARD,Henagar,AL,DeKalb County,America/Chicago,256,34.63,-85.73,4220
35979,STANDARD,Higdon,AL,DeKalb County,America/Chicago,256,34.83,-85.61,1160
35980,STANDARD,Horton,AL,Marshall County,America/Chicago,205,34.18,-86.32,3990
35981,STANDARD,Ider,AL,DeKalb County,America/Chicago,256,34.7,-85.66,1620
35983,STANDARD,Leesburg,AL,Cherokee County,America/Chicago,256,34.17,-85.76,2930
35984,STANDARD,Mentone,AL,DeKalb County,America/Chicago,256,34.56,-85.58,1530
35986,STANDARD,Rainsville,AL,DeKalb County,America/Chicago,256,34.49,-85.84,6930
35987,STANDARD,Steele,AL,St. Clair County,America/Chicago,205,33.93,-86.19,2070
35988,STANDARD,Sylvania,AL,DeKalb County,America/Chicago,256,34.55,-85.8,1530
35989,STANDARD,Valley Head,AL,DeKalb County,America/Chicago,256,34.55,-85.62,2770
36003,STANDARD,Autaugaville,AL,Autauga County,America/Chicago,334,32.43,-86.65,1490
36005,STANDARD,Banks,AL,Pike County,America/Chicago,334,31.81,-85.83,1350
36006,STANDARD,Billingsley,AL,Autauga County,America/Chicago,,32.66,-86.7,1180
36008,STANDARD,Booth,AL,Autauga County,America/Chicago,334,32.47,-86.53,49
36009,STANDARD,Brantley,AL,Crenshaw County,America/Chicago,334,31.58,-86.25,2100
36010,STANDARD,Brundidge,AL,Pike County,America/Chicago,334,31.71,-85.81,3870
36013,STANDARD,Cecil,AL,Montgomery County,America/Chicago,334,32.3,-85.99,430
36016,STANDARD,Clayton,AL,Barbour County,America/Chicago,334,31.88,-85.45,2290
36017,STANDARD,Clio,AL,Barbour County,America/Chicago,334,31.7,-85.61,1020
36020,STANDARD,Coosada,AL,Elmore County,America/Chicago,334,32.49,-86.33,1040
36022,STANDARD,Deatsville,AL,Elmore County,America/Chicago,334,32.62,-86.4,13020
36024,STANDARD,Eclectic,AL,Elmore County,America/Chicago,334,32.63,-86.03,5320
36025,STANDARD,Elmore,AL,Elmore County,America/Chicago,334,32.53,-86.31,3440
36026,STANDARD,Equality,AL,Coosa County,America/Chicago,334,32.8,-86.11,820
36027,STANDARD,Eufaula,AL,Barbour County,America/Chicago,334,31.9,-85.15,11980
36028,STANDARD,Dozier,AL,Covington County,America/Chicago,334,31.5,-86.37,1420
36029,STANDARD,Fitzpatrick,AL,Bullock County,America/Chicago,334,32.17,-85.9,730
36030,STANDARD,Forest Home,AL,Butler County,America/Chicago,334,31.86,-86.84,380
36032,STANDARD,Fort Deposit,AL,Lowndes County,America/Chicago,334,31.98,-86.57,2190
36033,STANDARD,Georgiana,AL,Butler County,America/Chicago,334,31.63,-86.74,2920
36034,STANDARD,Glenwood,AL,Pike County,America/Chicago,,31.66,-86.17,640
36035,STANDARD,Goshen,AL,Pike County,America/Chicago,334,31.71,-86.12,1620
36036,STANDARD,Grady,AL,Montgomery County,America/Chicago,334,32.01,-86.11,1440
36037,STANDARD,Greenville,AL,Butler County,America/Chicago,334,31.82,-86.62,10850
36039,STANDARD,Hardaway,AL,Macon County,America/Chicago,334,32.3,-85.87,200
36040,STANDARD,Hayneville,AL,Lowndes County,America/Chicago,334,32.18,-86.57,2920
36041,STANDARD,Highland Home,AL,Crenshaw County,America/Chicago,334,31.95,-86.31,1250
36042,STANDARD,Honoraville,AL,Crenshaw County,America/Chicago,334,31.85,-86.4,1190
36043,STANDARD,Hope Hull,AL,Montgomery County,America/Chicago,,32.21,-86.4,3060
36046,STANDARD,Lapine,AL,Crenshaw County,America/Chicago,,32.02,-86.34,1100
36047,STANDARD,Letohatchee,AL,Lowndes County,America/Chicago,334,32.08,-86.51,1150
36048,STANDARD,Louisville,AL,Barbour County,America/Chicago,334,31.78,-85.55,1000
36049,STANDARD,Luverne,AL,Crenshaw County,America/Chicago,334,31.7,-86.26,4410
36051,STANDARD,Marbury,AL,Autauga County,America/Chicago,,32.64,-86.54,1960
36052,STANDARD,Mathews,AL,Montgomery County,America/Chicago,334,32.13,-86.03,790
36053,STANDARD,Midway,AL,Bullock County,America/Chicago,334,32.07,-85.52,1380
36054,STANDARD,Millbrook,AL,Elmore County,America/Chicago,334,32.49,-86.36,13210
36064,STANDARD,Pike Road,AL,Montgomery County,America/Chicago,334,32.3,-86.08,12470
36066,STANDARD,Prattville,AL,Autauga County,America/Chicago,334,32.46,-86.44,18750
36067,STANDARD,Prattville,AL,Autauga County,America/Chicago,334,32.51,-86.56,23120
36069,STANDARD,Ramer,AL,Montgomery County,America/Chicago,334,32.07,-86.24,1420
36071,STANDARD,Rutledge,AL,Crenshaw County,America/Chicago,334,31.71,-86.4,590
36075,STANDARD,Shorter,AL,Macon County,America/Chicago,334,32.4,-85.93,1570
36078,STANDARD,Tallassee,AL,Elmore County,America/Chicago,334,32.53,-85.89,11330
36079,STANDARD,Troy,AL,Pike County,America/Chicago,334,31.76,-86,7530
36080,STANDARD,Titus,AL,Elmore County,America/Chicago,334,32.71,-86.25,2120
36081,STANDARD,Troy,AL,Pike County,America/Chicago,334,31.9,-85.9,10220
36083,STANDARD,Tuskegee,AL,Macon County,America/Chicago,334,32.39,-85.68,5880
36088,STANDARD,Tuskegee Institute,AL,Macon County,America/Chicago,334,32.42,-85.71,1650
36089,STANDARD,Union Springs,AL,Bullock County,America/Chicago,334,32.13,-85.71,5810
36091,STANDARD,Verbena,AL,Chilton County,America/Chicago,334,32.75,-86.52,3130
36092,STANDARD,Wetumpka,AL,Elmore County,America/Chicago,334,32.54,-86.2,17420
36093,STANDARD,Wetumpka,AL,Elmore County,America/Chicago,334,32.49,-86.13,11180
36104,STANDARD,Montgomery,AL,Montgomery County,America/Chicago,334,32.4,-86.33,4780
36105,STANDARD,Montgomery,AL,Montgomery County,America/Chicago,334,32.21,-86.29,8190
36106,STANDARD,Montgomery,AL,Montgomery County,America/Chicago,334,32.35,-86.28,11800
36107,STANDARD,Montgomery,AL,Montgomery County,America/Chicago,334,32.38,-86.28,5740
36108,STANDARD,Montgomery,AL,Montgomery County,America/Chicago,334,32.34,-86.4,13620
36109,STANDARD,Montgomery,AL,Montgomery County,America/Chicago,334,32.39,-86.24,20130
36110,STANDARD,Montgomery,AL,Montgomery County,America/Chicago,334,32.45,-86.26,8920
36111,STANDARD,Montgomery,AL,Montgomery County,America/Chicago,334,32.34,-86.27,11060
36112,STANDARD,Montgomery,AL,Montgomery County,America/Chicago,334,32.38,-86.35,337
36113,STANDARD,Montgomery,AL,Montgomery County,America/Chicago,334,32.38,-86.36,760
36114,STANDARD,Montgomery,AL,Montgomery County,America/Chicago,334,32.35,-86.28,69
36115,STANDARD,Montgomery,AL,Montgomery County,America/Chicago,334,32.41,-86.25,670
36116,STANDARD,Montgomery,AL,Montgomery County,America/Chicago,334,32.27,-86.21,35540
36117,STANDARD,Montgomery,AL,Montgomery County,America/Chicago,334,32.38,-86.15,42790
36119,STANDARD,Montgomery,AL,Montgomery County,America/Chicago,334,32.35,-86.28,0
36201,STANDARD,Anniston,AL,Calhoun County,America/Chicago,256,33.65,-85.88,12180
36203,STANDARD,Oxford,AL,Calhoun County,America/Chicago,256,33.58,-85.83,17000
36205,STANDARD,Anniston,AL,Calhoun County,America/Chicago,256,33.72,-85.79,570
36206,STANDARD,Anniston,AL,Calhoun County,America/Chicago,256,33.73,-85.81,8890
36207,STANDARD,Anniston,AL,Calhoun County,America/Chicago,256,33.66,-85.81,16070
36250,STANDARD,Alexandria,AL,Calhoun County,America/Chicago,256,33.78,-85.9,4280
36251,STANDARD,Ashland,AL,Clay County,America/Chicago,256,33.27,-85.83,4060
36255,STANDARD,Cragford,AL,Clay County,America/Chicago,256,33.21,-85.69,710
36256,STANDARD,Daviston,AL,Tallapoosa County,America/Chicago,,33.05,-85.63,1210
36258,STANDARD,Delta,AL,Clay County,America/Chicago,256,33.45,-85.68,1420
36260,STANDARD,Eastaboga,AL,Calhoun County,America/Chicago,,33.6,-85.97,3380
36262,STANDARD,Fruithurst,AL,Cleburne County,America/Chicago,256,33.73,-85.43,1170
36263,STANDARD,Graham,AL,Randolph County,America/Chicago,256,33.46,-85.33,430
36264,STANDARD,Heflin,AL,Cleburne County,America/Chicago,256,33.64,-85.58,7100
36265,STANDARD,Jacksonville,AL,Calhoun County,America/Chicago,256,33.81,-85.76,14530
36266,STANDARD,Lineville,AL,Clay County,America/Chicago,256,33.31,-85.75,4480
36268,STANDARD,Munford,AL,Talladega County,America/Chicago,256,33.53,-85.92,4770
36269,STANDARD,Muscadine,AL,Cleburne County,America/Chicago,256,33.74,-85.37,1080
36271,STANDARD,Ohatchee,AL,Calhoun County,America/Chicago,256,33.78,-86.01,5130
36272,STANDARD,Piedmont,AL,Calhoun County,America/Chicago,256,33.92,-85.61,9790
36273,STANDARD,Ranburne,AL,Cleburne County,America/Chicago,256,33.52,-85.34,2340
36274,STANDARD,Roanoke,AL,Randolph County,America/Chicago,334,33.14,-85.36,8790
36276,STANDARD,Wadley,AL,Randolph County,America/Chicago,256,33.12,-85.56,1690
36277,STANDARD,Weaver,AL,Calhoun County,America/Chicago,256,33.75,-85.8,4650
36278,STANDARD,Wedowee,AL,Randolph County,America/Chicago,256,33.3,-85.48,3970
36279,STANDARD,Wellington,AL,Calhoun County,America/Chicago,256,33.87,-85.89,2160
36280,STANDARD,Woodland,AL,Randolph County,America/Chicago,256,33.37,-85.39,3220
36301,STANDARD,Dothan,AL,Houston County,America/Chicago,334,31.14,-85.4,30770
36303,STANDARD,Dothan,AL,Houston County,America/Chicago,334,31.23,-85.4,24840
36305,STANDARD,Dothan,AL,Houston County,America/Chicago,334,31.2,-85.5,13920
36310,STANDARD,Abbeville,AL,Henry County,America/Chicago,334,31.56,-85.25,4690
36311,STANDARD,Ariton,AL,Dale County,America/Chicago,334,31.59,-85.71,2190
36312,STANDARD,Ashford,AL,Houston County,America/Chicago,334,31.18,-85.23,5010
36314,STANDARD,Black,AL,Geneva County,America/Chicago,334,31,-85.74,500
36316,STANDARD,Chancellor,AL,Geneva County,America/Chicago,334,31.18,-85.87,1540
36317,STANDARD,Clopton,AL,Henry County,America/Chicago,334,31.64,-85.4,330
36318,STANDARD,Coffee Springs,AL,Geneva County,America/Chicago,334,31.16,-85.9,1040
36319,STANDARD,Columbia,AL,Houston County,America/Chicago,334,31.29,-85.11,1770
36320,STANDARD,Cottonwood,AL,Houston County,America/Chicago,334,31.05,-85.3,2720
36321,STANDARD,Cowarts,AL,Houston County,America/Chicago,334,31.19,-85.3,1620
36322,STANDARD,Daleville,AL,Dale County,America/Chicago,334,31.3,-85.71,6710
36323,STANDARD,Elba,AL,Coffee County,America/Chicago,334,31.41,-86.07,5920
36330,STANDARD,Enterprise,AL,Coffee County,America/Chicago,334,31.32,-85.84,32200
36340,STANDARD,Geneva,AL,Geneva County,America/Chicago,334,31.03,-85.87,4100
36343,STANDARD,Gordon,AL,Houston County,America/Chicago,334,31.14,-85.09,1100
36344,STANDARD,Hartford,AL,Geneva County,America/Chicago,334,31.1,-85.69,4450
36345,STANDARD,Headland,AL,Henry County,America/Chicago,334,31.35,-85.34,7650
36346,STANDARD,Jack,AL,Coffee County,America/Chicago,334,31.57,-85.99,1240
36350,STANDARD,Midland City,AL,Dale County,America/Chicago,334,31.31,-85.49,6430
36351,STANDARD,New Brockton,AL,Coffee County,America/Chicago,334,31.38,-85.92,3250
36352,STANDARD,Newton,AL,Houston County,America/Chicago,334,31.33,-85.6,4690
36353,STANDARD,Newville,AL,Henry County,America/Chicago,334,31.42,-85.33,1670
36360,STANDARD,Ozark,AL,Dale County,America/Chicago,334,31.43,-85.64,15590
36362,STANDARD,Fort Rucker,AL,Dale County,America/Chicago,334,31.34,-85.71,3440
36370,STANDARD,Pansey,AL,Houston County,America/Chicago,334,31.15,-85.17,740
36373,STANDARD,Shorterville,AL,Henry County,America/Chicago,334,31.56,-85.1,430
36374,STANDARD,Skipperville,AL,Dale County,America/Chicago,334,31.55,-85.54,970
36375,STANDARD,Slocomb,AL,Geneva County,America/Chicago,334,31.11,-85.59,5920
36376,STANDARD,Webb,AL,Houston County,America/Chicago,334,31.25,-85.28,1760
36401,STANDARD,Evergreen,AL,Conecuh County,America/Chicago,251,31.43,-86.95,5590
36420,STANDARD,Andalusia,AL,Covington County,America/Chicago,334,31.3,-86.48,9090
36421,STANDARD,Andalusia,AL,Covington County,America/Chicago,334,31.37,-86.47,7340
36425,STANDARD,Beatrice,AL,Monroe County,America/Chicago,251,31.73,-87.2,550
36426,STANDARD,Brewton,AL,Escambia County,America/Chicago,251,31.11,-87.07,11570
36432,STANDARD,Castleberry,AL,Conecuh County,America/Chicago,251,31.29,-87.02,1890
36435,STANDARD,Coy,AL,Wilcox County,America/Chicago,,31.89,-87.46,360
36436,STANDARD,Dickinson,AL,Clarke County,America/Chicago,251,31.79,-87.65,400
36441,STANDARD,Flomaton,AL,Escambia County,America/Chicago,251,31.01,-87.25,3100
36442,STANDARD,Florala,AL,Covington County,America/Chicago,334,31.02,-86.3,2270
36444,STANDARD,Franklin,AL,Monroe County,America/Chicago,251,31.71,-87.41,470
36445,STANDARD,Frisco City,AL,Monroe County,America/Chicago,251,31.43,-87.4,3340
36451,STANDARD,Grove Hill,AL,Clarke County,America/Chicago,251,31.7,-87.77,3790
36453,STANDARD,Kinston,AL,Covington County,America/Chicago,334,31.21,-86.16,1810
36454,STANDARD,Lenox,AL,Conecuh County,America/Chicago,251,31.33,-87.2,87
36456,STANDARD,Mc Kenzie,AL,Butler County,America/Chicago,334,31.54,-86.71,1430
36460,STANDARD,Monroeville,AL,Monroe County,America/Chicago,251,31.51,-87.32,7190
36467,STANDARD,Opp,AL,Covington County,America/Chicago,334,31.29,-86.25,7630
36471,STANDARD,Peterman,AL,Monroe County,America/Chicago,251,31.58,-87.25,770
36473,STANDARD,Range,AL,Conecuh County,America/Chicago,251,31.31,-87.23,152
36474,STANDARD,Red Level,AL,Covington County,America/Chicago,334,31.4,-86.6,2310
36475,STANDARD,Repton,AL,Conecuh County,America/Chicago,251,31.4,-87.23,1450
36477,STANDARD,Samson,AL,Geneva County,America/Chicago,334,31.11,-86.04,3680
36480,STANDARD,Uriah,AL,Monroe County,America/Chicago,251,31.3,-87.5,1380
36481,STANDARD,Vredenburgh,AL,Monroe County,America/Chicago,334,31.82,-87.31,210
36482,STANDARD,Whatley,AL,Clarke County,America/Chicago,251,31.65,-87.62,710
36483,STANDARD,Wing,AL,Covington County,America/Chicago,334,31.02,-86.61,330
36501,STANDARD,Jackson,AL,Clarke County,America/Chicago,,31.46,-87.73,0
36502,STANDARD,Atmore,AL,Escambia County,America/Chicago,251,31.02,-87.49,12280
36505,STANDARD,Axis,AL,Mobile County,America/Chicago,251,30.92,-88.02,1320
36507,STANDARD,Bay Minette,AL,Baldwin County,America/Chicago,251,30.88,-87.77,16000
36509,STANDARD,Bayou La Batre,AL,Mobile County,America/Chicago,251,30.4,-88.25,1620
36511,STANDARD,Bon Secour,AL,Baldwin County,America/Chicago,251,30.32,-87.75,650
36515,STANDARD,Carlton,AL,Clarke County,America/Chicago,251,31.34,-87.84,0
36518,STANDARD,Chatom,AL,Washington County,America/Chicago,251,31.46,-88.25,2050
36521,STANDARD,Chunchula,AL,Mobile County,America/Chicago,251,30.92,-88.2,4240
36522,STANDARD,Citronelle,AL,Mobile County,America/Chicago,251,31.09,-88.24,6020
36523,STANDARD,Coden,AL,Mobile County,America/Chicago,251,30.37,-88.18,2080
36524,STANDARD,Coffeeville,AL,Clarke County,America/Chicago,251,31.76,-88.08,840
36525,STANDARD,Creola,AL,Mobile County,America/Chicago,251,30.89,-88,1580
36526,STANDARD,Daphne,AL,Baldwin County,America/Chicago,251,30.62,-87.89,32060
36527,STANDARD,Daphne,AL,Baldwin County,America/Chicago,251,30.67,-87.88,15990
36528,STANDARD,Dauphin Island,AL,Mobile County,America/Chicago,251,30.25,-88.11,1460
36529,STANDARD,Deer Park,AL,Washington County,America/Chicago,251,31.21,-88.31,430
36530,STANDARD,Elberta,AL,Baldwin County,America/Chicago,251,30.41,-87.6,6650
36532,STANDARD,Fairhope,AL,Baldwin County,America/Chicago,251,30.51,-87.88,30350
36535,STANDARD,Foley,AL,Baldwin County,America/Chicago,251,30.4,-87.68,27870
36538,STANDARD,Frankville,AL,Washington County,America/Chicago,251,31.64,-88.14,270
36539,STANDARD,Fruitdale,AL,Washington County,America/Chicago,251,31.34,-88.41,560
36540,STANDARD,Gainestown,AL,Clarke County,America/Chicago,,31.44,-87.69,800
36541,STANDARD,Grand Bay,AL,Mobile County,America/Chicago,251,30.47,-88.34,12730
36542,STANDARD,Gulf Shores,AL,Baldwin County,America/Chicago,251,30.27,-87.7,12970
36544,STANDARD,Irvington,AL,Mobile County,America/Chicago,251,30.5,-88.23,9510
36545,STANDARD,Jackson,AL,Clarke County,America/Chicago,251,31.53,-87.89,7170
36548,STANDARD,Leroy,AL,Washington County,America/Chicago,251,31.5,-87.98,920
36549,STANDARD,Lillian,AL,Baldwin County,America/Chicago,251,30.41,-87.43,4430
36550,STANDARD,Little River,AL,Baldwin County,America/Chicago,251,31.25,-87.7,217
36551,STANDARD,Loxley,AL,Baldwin County,America/Chicago,251,30.62,-87.75,8530
36553,STANDARD,Mc Intosh,AL,Washington County,America/Chicago,251,31.26,-88.02,2720
36555,STANDARD,Magnolia Springs,AL,Baldwin County,America/Chicago,251,30.4,-87.78,1100
36558,STANDARD,Millry,AL,Washington County,America/Chicago,251,31.62,-88.31,2880
36560,STANDARD,Mount Vernon,AL,Mobile County,America/Chicago,251,31.09,-88.01,2580
36561,STANDARD,Orange Beach,AL,Baldwin County,America/Chicago,251,30.28,-87.59,7680
36562,STANDARD,Perdido,AL,Baldwin County,America/Chicago,251,31,-87.62,1580
36567,STANDARD,Robertsdale,AL,Baldwin County,America/Chicago,251,30.55,-87.7,12050
36569,STANDARD,Saint Stephens,AL,Washington County,America/Chicago,251,31.53,-88.05,680
36571,STANDARD,Saraland,AL,Mobile County,America/Chicago,251,30.82,-88.09,14680
36572,STANDARD,Satsuma,AL,Mobile County,America/Chicago,251,30.85,-88.06,6220
36574,STANDARD,Seminole,AL,Baldwin County,America/Chicago,251,30.51,-87.47,1180
36575,STANDARD,Semmes,AL,Mobile County,America/Chicago,251,30.77,-88.26,18200
36576,STANDARD,Silverhill,AL,Baldwin County,America/Chicago,251,30.54,-87.74,4410
36578,STANDARD,Stapleton,AL,Baldwin County,America/Chicago,251,30.74,-87.79,1790
36579,STANDARD,Stockton,AL,Baldwin County,America/Chicago,251,30.99,-87.85,1320
36580,STANDARD,Summerdale,AL,Baldwin County,America/Chicago,251,30.48,-87.7,5620
36581,STANDARD,Sunflower,AL,Washington County,America/Chicago,251,31.38,-87.97,142
36582,STANDARD,Theodore,AL,Mobile County,America/Chicago,251,30.54,-88.17,20330
36583,STANDARD,Tibbie,AL,Washington County,America/Chicago,251,31.36,-88.24,510
36584,STANDARD,Vinegar Bend,AL,Washington County,America/Chicago,251,31.26,-88.34,560
36585,STANDARD,Wagarville,AL,Washington County,America/Chicago,251,31.44,-88.03,780
36587,STANDARD,Wilmer,AL,Mobile County,America/Chicago,251,30.82,-88.35,9260
36602,STANDARD,Mobile,AL,Mobile County,America/Chicago,251,30.69,-88.05,730
36603,STANDARD,Mobile,AL,Mobile County,America/Chicago,251,30.68,-88.04,4850
36604,STANDARD,Mobile,AL,Mobile County,America/Chicago,251,30.68,-88.07,6930
36605,STANDARD,Mobile,AL,Mobile County,America/Chicago,251,30.6,-88.09,20610
36606,STANDARD,Mobile,AL,Mobile County,America/Chicago,251,30.67,-88.11,15130
36607,STANDARD,Mobile,AL,Mobile County,America/Chicago,251,30.7,-88.11,4740
36608,STANDARD,Mobile,AL,Mobile County,America/Chicago,251,30.68,-88.3,30200
36609,STANDARD,Mobile,AL,Mobile County,America/Chicago,251,30.66,-88.16,19200
36610,STANDARD,Mobile,AL,Mobile County,America/Chicago,251,30.74,-88.07,7610
36611,STANDARD,Mobile,AL,Mobile County,America/Chicago,251,30.77,-88.08,4890
36612,STANDARD,Mobile,AL,Mobile County,America/Chicago,251,30.75,-88.11,3090
36613,STANDARD,Eight Mile,AL,Mobile County,America/Chicago,251,30.81,-88.19,9330
36615,STANDARD,Mobile,AL,Mobile County,America/Chicago,251,30.63,-88.07,413
36617,STANDARD,Mobile,AL,Mobile County,America/Chicago,251,30.72,-88.1,9160
36618,STANDARD,Mobile,AL,Mobile County,America/Chicago,251,30.74,-88.17,14850
36619,STANDARD,Mobile,AL,Mobile County,America/Chicago,251,30.6,-88.2,12580
36693,STANDARD,Mobile,AL,Mobile County,America/Chicago,251,30.63,-88.15,15930
36695,STANDARD,Mobile,AL,Mobile County,America/Chicago,251,30.63,-88.28,43870
36701,STANDARD,Selma,AL,Dallas County,America/Chicago,334,32.41,-87.03,16280
36703,STANDARD,Selma,AL,Dallas County,America/Chicago,334,32.43,-86.91,8240
36720,STANDARD,Alberta,AL,Wilcox County,America/Chicago,334,32.23,-87.41,680
36721,STANDARD,Annemanie,AL,Wilcox County,America/Chicago,,32.07,-87.56,0
36722,STANDARD,Arlington,AL,Wilcox County,America/Chicago,334,32.07,-87.56,320
36726,STANDARD,Camden,AL,Wilcox County,America/Chicago,334,31.99,-87.29,3640
36727,STANDARD,Campbell,AL,Clarke County,America/Chicago,,31.95,-88.02,62
36728,STANDARD,Catherine,AL,Wilcox County,America/Chicago,334,32.18,-87.46,500
36732,STANDARD,Demopolis,AL,Marengo County,America/Chicago,334,32.5,-87.83,6900
36736,STANDARD,Dixons Mills,AL,Marengo County,America/Chicago,334,32.06,-87.78,1040
36738,STANDARD,Faunsdale,AL,Marengo County,America/Chicago,334,32.45,-87.59,780
36740,STANDARD,Forkland,AL,Greene County,America/Chicago,,32.64,-87.86,890
36742,STANDARD,Gallion,AL,Marengo County,America/Chicago,334,32.54,-87.7,1980
36744,STANDARD,Greensboro,AL,Hale County,America/Chicago,334,32.7,-87.59,4980
36748,STANDARD,Linden,AL,Marengo County,America/Chicago,334,32.3,-87.79,2420
36749,STANDARD,Jones,AL,Autauga County,America/Chicago,,32.54,-86.86,720
36750,STANDARD,Maplesville,AL,Chilton County,America/Chicago,334,32.78,-86.87,2510
36751,STANDARD,Lower Peach Tree,AL,Monroe County,America/Chicago,251,31.84,-87.54,680
36752,STANDARD,Lowndesboro,AL,Lowndes County,America/Chicago,334,32.27,-86.61,1300
36754,STANDARD,Magnolia,AL,Marengo County,America/Chicago,334,32.15,-87.7,220
36756,STANDARD,Marion,AL,Perry County,America/Chicago,334,32.63,-87.31,4010
36758,STANDARD,Plantersville,AL,Dallas County,America/Chicago,,32.61,-86.98,1050
36759,STANDARD,Marion Junction,AL,Dallas County,America/Chicago,334,32.44,-87.28,1110
36761,STANDARD,Minter,AL,Dallas County,America/Chicago,,32.1,-86.96,710
36762,STANDARD,Morvin,AL,Clarke County,America/Chicago,334,31.98,-87.99,0
36765,STANDARD,Newbern,AL,Hale County,America/Chicago,,32.59,-87.53,880
36767,STANDARD,Orrville,AL,Dallas County,America/Chicago,334,32.3,-87.24,1350
36768,STANDARD,Pine Apple,AL,Wilcox County,America/Chicago,251,31.87,-86.98,520
36769,STANDARD,Pine Hill,AL,Wilcox County,America/Chicago,334,31.98,-87.58,2220
36773,STANDARD,Safford,AL,Dallas County,America/Chicago,334,32.29,-87.35,260
36775,STANDARD,Sardis,AL,Dallas County,America/Chicago,334,32.27,-87.02,550
36776,STANDARD,Sawyerville,AL,Hale County,America/Chicago,,32.74,-87.74,1210
36782,STANDARD,Sweet Water,AL,Marengo County,America/Chicago,334,32.1,-87.86,1730
36783,STANDARD,Thomaston,AL,Marengo County,America/Chicago,334,32.26,-87.62,640
36784,STANDARD,Thomasville,AL,Clarke County,America/Chicago,334,31.91,-87.74,6130
36785,STANDARD,Tyler,AL,Lowndes County,America/Chicago,334,32.27,-86.84,910
36786,STANDARD,Uniontown,AL,Perry County,America/Chicago,334,32.44,-87.5,2390
36790,STANDARD,Stanton,AL,Chilton County,America/Chicago,,32.73,-86.89,210
36792,STANDARD,Randolph,AL,Bibb County,America/Chicago,205,32.89,-86.9,930
36793,STANDARD,Lawley,AL,Bibb County,America/Chicago,334,32.86,-86.96,420
36801,STANDARD,Opelika,AL,Lee County,America/Chicago,334,32.65,-85.37,19480
36804,STANDARD,Opelika,AL,Lee County,America/Chicago,334,32.53,-85.34,17130
36830,STANDARD,Auburn,AL,Lee County,America/Chicago,334,32.59,-85.48,32680
36832,STANDARD,Auburn,AL,Lee County,America/Chicago,334,32.59,-85.59,15740
36850,STANDARD,Camp Hill,AL,Tallapoosa County,America/Chicago,"334,256",32.8,-85.65,2050
36852,STANDARD,Cusseta,AL,Lee County,America/Chicago,334,32.76,-85.29,2120
36853,STANDARD,Dadeville,AL,Tallapoosa County,America/Chicago,256,32.83,-85.76,7030
36854,STANDARD,Valley,AL,Chambers County,America/Chicago,334,32.8,-85.17,12690
36855,STANDARD,Five Points,AL,Chambers County,America/Chicago,334,33.01,-85.35,960
36856,STANDARD,Fort Mitchell,AL,Russell County,America/Chicago,334,32.27,-85,7100
36858,STANDARD,Hatchechubbee,AL,Russell County,America/Chicago,334,32.28,-85.3,360
36860,STANDARD,Hurtsboro,AL,Russell County,America/Chicago,334,32.23,-85.41,1060
36861,STANDARD,Jacksons Gap,AL,Tallapoosa County,America/Chicago,"256,334",32.9,-85.83,2600
36862,STANDARD,Lafayette,AL,Chambers County,America/Chicago,334,32.89,-85.4,4410
36863,STANDARD,Lanett,AL,Chambers County,America/Chicago,334,32.86,-85.2,8990
36866,STANDARD,Notasulga,AL,Macon County,America/Chicago,334,32.55,-85.67,3130
36867,STANDARD,Phenix City,AL,Russell County,America/Chicago,334,32.46,-85.01,16770
36869,STANDARD,Phenix City,AL,Russell County,America/Chicago,334,32.42,-85.06,16270
36870,STANDARD,Phenix City,AL,Lee County,America/Chicago,334,32.48,-85.12,16070
36871,STANDARD,Pittsview,AL,Russell County,America/Chicago,334,32.16,-85.12,840
36874,STANDARD,Salem,AL,Lee County,America/Chicago,,32.61,-85.17,7860
36875,STANDARD,Seale,AL,Russell County,America/Chicago,334,32.3,-85.18,3770
36877,STANDARD,Smiths Station,AL,Lee County,America/Chicago,,32.53,-85.08,10500
36879,STANDARD,Waverly,AL,Lee County,America/Chicago,256,32.73,-85.57,2540
36904,STANDARD,Butler,AL,Choctaw County,America/Chicago,205,32.08,-88.22,2930
36907,STANDARD,Cuba,AL,Sumter County,America/Chicago,205,32.44,-88.37,1230
36908,STANDARD,Gilbertown,AL,Choctaw County,America/Chicago,251,31.87,-88.31,1820
36910,STANDARD,Jachin,AL,Choctaw County,America/Chicago,205,32.2,-88.15,50
36912,STANDARD,Lisman,AL,Choctaw County,America/Chicago,205,32.16,-88.28,1330
36913,STANDARD,Melvin,AL,Choctaw County,America/Chicago,251,31.96,-88.45,68
36915,STANDARD,Needham,AL,Choctaw County,America/Chicago,205,31.98,-88.33,470
36916,STANDARD,Pennington,AL,Choctaw County,America/Chicago,"334,205",32.19,-88.05,440
36919,STANDARD,Silas,AL,Choctaw County,America/Chicago,251,31.76,-88.32,1510
36921,STANDARD,Toxey,AL,Choctaw County,America/Chicago,251,31.91,-88.3,830
36922,STANDARD,Ward,AL,Choctaw County,America/Chicago,,32.29,-88.09,390
36925,STANDARD,York,AL,Sumter County,America/Chicago,205,32.49,-88.29,2220
71601,STANDARD,Pine Bluff,AR,Jefferson County,America/Chicago,870,34.21,-92.01,9710
71602,STANDARD,White Hall,AR,Jefferson County,America/Chicago,870,34.27,-92.09,13190
71603,STANDARD,Pine Bluff,AR,Jefferson County,America/Chicago,870,34.12,-92.09,23410
71631,STANDARD,Banks,AR,Bradley County,America/Chicago,870,33.57,-92.26,500
71635,STANDARD,Crossett,AR,Ashley County,America/Chicago,870,33.12,-91.96,9010
71638,STANDARD,Dermott,AR,Chicot County,America/Chicago,870,33.52,-91.43,2180
71639,STANDARD,Dumas,AR,Desha County,America/Chicago,870,33.88,-91.48,4710
71640,STANDARD,Eudora,AR,Chicot County,America/Chicago,870,33.11,-91.26,1900
71642,STANDARD,Fountain Hill,AR,Ashley County,America/Chicago,,33.39,-91.89,400
71643,STANDARD,Gould,AR,Lincoln County,America/Chicago,870,33.98,-91.56,780
71644,STANDARD,Grady,AR,Lincoln County,America/Chicago,870,34.07,-91.69,610
71646,STANDARD,Hamburg,AR,Ashley County,America/Chicago,870,33.22,-91.79,5000
71647,STANDARD,Hermitage,AR,Bradley County,America/Chicago,870,33.44,-92.17,1330
71651,STANDARD,Jersey,AR,Bradley County,America/Chicago,870,33.34,-92.28,156
71652,STANDARD,Kingsland,AR,Cleveland County,America/Chicago,870,33.86,-92.29,780
71653,STANDARD,Lake Village,AR,Chicot County,America/Chicago,870,33.32,-91.28,3700
71654,STANDARD,Mc Gehee,AR,Desha County,America/Chicago,870,33.62,-91.39,3470
71655,STANDARD,Monticello,AR,Drew County,America/Chicago,870,33.62,-91.79,10870
71658,STANDARD,Montrose,AR,Ashley County,America/Chicago,870,33.32,-91.56,460
71660,STANDARD,New Edinburg,AR,Cleveland County,America/Chicago,870,33.76,-92.19,680
71661,STANDARD,Parkdale,AR,Ashley County,America/Chicago,870,33.12,-91.54,338
71662,STANDARD,Pickens,AR,Desha County,America/Chicago,870,33.84,-91.51,200
71663,STANDARD,Portland,AR,Ashley County,America/Chicago,870,33.23,-91.51,550
71665,STANDARD,Rison,AR,Cleveland County,America/Chicago,870,33.95,-92.19,4600
71667,STANDARD,Star City,AR,Lincoln County,America/Chicago,870,33.94,-91.84,5860
71670,STANDARD,Tillar,AR,Desha County,America/Chicago,870,33.71,-91.45,930
71671,STANDARD,Warren,AR,Bradley County,America/Chicago,870,33.61,-92.06,6810
71674,STANDARD,Watson,AR,Desha County,America/Chicago,870,33.89,-91.25,480
71675,STANDARD,Wilmar,AR,Drew County,America/Chicago,870,33.62,-91.92,1540
71676,STANDARD,Wilmot,AR,Ashley County,America/Chicago,870,33.05,-91.57,370
71701,STANDARD,Camden,AR,Ouachita County,America/Chicago,870,33.56,-92.84,14180
71720,STANDARD,Bearden,AR,Ouachita County,America/Chicago,870,33.72,-92.61,1850
71722,STANDARD,Bluff City,AR,Nevada County,America/Chicago,,33.71,-93.13,125
71725,STANDARD,Carthage,AR,Dallas County,America/Chicago,870,34.07,-92.55,340
71726,STANDARD,Chidester,AR,Ouachita County,America/Chicago,870,33.69,-93.01,750
71730,STANDARD,El Dorado,AR,Union County,America/Chicago,870,33.21,-92.66,25970
71740,STANDARD,Emerson,AR,Columbia County,America/Chicago,870,33.09,-93.19,1250
71742,STANDARD,Fordyce,AR,Dallas County,America/Chicago,870,33.81,-92.41,3620
71743,STANDARD,Gurdon,AR,Clark County,America/Chicago,870,33.91,-93.14,3070
71744,STANDARD,Hampton,AR,Calhoun County,America/Chicago,870,33.53,-92.46,2420
71747,STANDARD,Huttig,AR,Union County,America/Chicago,870,33.04,-92.18,680
71749,STANDARD,Junction City,AR,Union County,America/Chicago,870,33.02,-92.72,2080
71751,STANDARD,Louann,AR,Ouachita County,America/Chicago,870,33.39,-92.79,690
71752,STANDARD,Mc Neil,AR,Columbia County,America/Chicago,870,33.34,-93.2,650
71753,STANDARD,Magnolia,AR,Columbia County,America/Chicago,870,33.27,-93.23,11110
71758,STANDARD,Mount Holly,AR,Union County,America/Chicago,870,33.31,-92.94,320
71762,STANDARD,Smackover,AR,Union County,America/Chicago,870,33.36,-92.73,1970
71763,STANDARD,Sparkman,AR,Dallas County,America/Chicago,870,33.91,-92.84,1120
71764,STANDARD,Stephens,AR,Ouachita County,America/Chicago,870,33.42,-93.06,1280
71765,STANDARD,Strong,AR,Union County,America/Chicago,870,33.14,-92.33,1560
71766,STANDARD,Thornton,AR,Calhoun County,America/Chicago,870,33.77,-92.48,460
71768,STANDARD,El Dorado,AR,Union County,America/Chicago,870,33.1,-92.49,0
71770,STANDARD,Waldo,AR,Columbia County,America/Chicago,870,33.35,-93.29,2540
71801,STANDARD,Hope,AR,Hempstead County,America/Chicago,870,33.66,-93.59,12060
71822,STANDARD,Ashdown,AR,Little River County,America/Chicago,870,33.67,-94.12,6490
71825,STANDARD,Blevins,AR,Hempstead County,America/Chicago,870,33.87,-93.57,540
71826,STANDARD,Bradley,AR,Lafayette County,America/Chicago,870,33.09,-93.65,810
71827,STANDARD,Buckner,AR,Lafayette County,America/Chicago,870,33.35,-93.43,550
71831,STANDARD,Columbus,AR,Hempstead County,America/Chicago,870,33.75,-93.82,169
71832,STANDARD,De Queen,AR,Sevier County,America/Chicago,870,34.04,-94.34,8910
71833,STANDARD,Dierks,AR,Howard County,America/Chicago,870,34.12,-94.01,1700
71834,STANDARD,Doddridge,AR,Miller County,America/Chicago,870,33.11,-93.95,1010
71835,STANDARD,Emmet,AR,Nevada County,America/Chicago,870,33.72,-93.46,990
71836,STANDARD,Foreman,AR,Little River County,America/Chicago,870,33.71,-94.39,2110
71837,STANDARD,Fouke,AR,Miller County,America/Chicago,870,33.26,-93.88,4420
71838,STANDARD,Fulton,AR,Hempstead County,America/Chicago,870,33.61,-93.81,700
71839,STANDARD,Garland City,AR,Miller County,America/Chicago,870,33.31,-93.75,262
71841,STANDARD,Gillham,AR,Sevier County,America/Chicago,870,34.16,-94.31,700
71842,STANDARD,Horatio,AR,Sevier County,America/Chicago,870,33.93,-94.35,1800
71845,STANDARD,Lewisville,AR,Lafayette County,America/Chicago,870,33.36,-93.57,1490
71846,STANDARD,Lockesburg,AR,Sevier County,America/Chicago,870,33.97,-94.17,1940
71847,STANDARD,Mc Caskill,AR,Hempstead County,America/Chicago,870,33.91,-93.64,480
71851,STANDARD,Mineral Springs,AR,Howard County,America/Chicago,870,33.87,-93.92,1710
71852,STANDARD,Nashville,AR,Howard County,America/Chicago,870,33.94,-93.85,8480
71853,STANDARD,Ogden,AR,Little River County,America/Chicago,870,33.58,-94.04,290
71854,STANDARD,Texarkana,AR,Miller County,America/Chicago,870,33.45,-94.01,28920
71855,STANDARD,Ozan,AR,Hempstead County,America/Chicago,870,33.84,-93.71,500
71857,STANDARD,Prescott,AR,Nevada County,America/Chicago,870,33.8,-93.38,4460
71858,STANDARD,Rosston,AR,Nevada County,America/Chicago,870,33.58,-93.27,1200
71859,STANDARD,Saratoga,AR,Hempstead County,America/Chicago,870,33.77,-93.88,240
71860,STANDARD,Stamps,AR,Lafayette County,America/Chicago,870,33.35,-93.49,1670
71861,STANDARD,Taylor,AR,Columbia County,America/Chicago,870,33.1,-93.46,1610
71862,STANDARD,Washington,AR,Hempstead County,America/Chicago,870,33.77,-93.68,590
71866,STANDARD,Winthrop,AR,Little River County,America/Chicago,870,33.83,-94.35,480
71901,STANDARD,Hot Springs National Park,AR,Garland County,America/Chicago,501,34.5,-93.05,23000
71909,STANDARD,Hot Springs Village,AR,Garland County,America/Chicago,501,34.66,-93,15870
71913,STANDARD,Hot Springs National Park,AR,Garland County,America/Chicago,501,34.45,-93.1,37940
71920,STANDARD,Alpine,AR,Clark County,America/Chicago,870,34.24,-93.36,0
71921,STANDARD,Amity,AR,Clark County,America/Chicago,870,34.26,-93.46,2700
71923,STANDARD,Arkadelphia,AR,Clark County,America/Chicago,870,34.12,-93.07,10840
71929,STANDARD,Bismarck,AR,Hot Spring County,America/Chicago,501,34.33,-93.19,4140
71933,STANDARD,Bonnerdale,AR,Garland County,America/Chicago,501,34.44,-93.34,1190
71935,STANDARD,Caddo Gap,AR,Montgomery County,America/Chicago,870,34.41,-93.64,560
71937,STANDARD,Cove,AR,Polk County,America/Chicago,870,34.43,-94.4,1410
71940,STANDARD,Delight,AR,Pike County,America/Chicago,870,34.02,-93.5,1200
71941,STANDARD,Donaldson,AR,Hot Spring County,America/Chicago,"870,501",34.2,-92.93,1510
71943,STANDARD,Glenwood,AR,Pike County,America/Chicago,870,34.33,-93.54,3600
71944,STANDARD,Grannis,AR,Polk County,America/Chicago,,34.24,-94.32,610
71945,STANDARD,Hatfield,AR,Polk County,America/Chicago,870,34.48,-94.37,1020
71949,STANDARD,Jessieville,AR,Garland County,America/Chicago,501,34.7,-93.21,1470
71950,STANDARD,Kirby,AR,Pike County,America/Chicago,870,34.26,-93.72,660
71951,STANDARD,Hot Springs National Park,AR,Garland County,America/Chicago,501,34.5,-93.05,0
71952,STANDARD,Langley,AR,Pike County,America/Chicago,870,34.3,-93.84,121
71953,STANDARD,Mena,AR,Polk County,America/Chicago,479,34.58,-94.23,11300
71956,STANDARD,Mountain Pine,AR,Garland County,America/Chicago,501,34.57,-93.17,1470
71957,STANDARD,Mount Ida,AR,Montgomery County,America/Chicago,870,34.55,-93.63,2370
71958,STANDARD,Murfreesboro,AR,Pike County,America/Chicago,870,34.06,-93.69,1840
71959,STANDARD,Newhope,AR,Pike County,America/Chicago,870,34.24,-93.93,550
71960,STANDARD,Norman,AR,Montgomery County,America/Chicago,870,34.45,-93.67,910
71961,STANDARD,Oden,AR,Montgomery County,America/Chicago,870,34.62,-93.78,700
71962,STANDARD,Okolona,AR,Clark County,America/Chicago,870,34,-93.33,530
71964,STANDARD,Pearcy,AR,Garland County,America/Chicago,501,34.43,-93.3,3340
71965,STANDARD,Pencil Bluff,AR,Montgomery County,America/Chicago,870,34.65,-93.74,290
71968,STANDARD,Royal,AR,Garland County,America/Chicago,501,34.52,-93.32,3960
71969,STANDARD,Sims,AR,Montgomery County,America/Chicago,870,34.66,-93.66,210
71970,STANDARD,Story,AR,Montgomery County,America/Chicago,870,34.67,-93.49,470
71971,STANDARD,Umpire,AR,Howard County,America/Chicago,870,34.28,-94.11,340
71972,STANDARD,Vandervoort,AR,Polk County,America/Chicago,,34.38,-94.28,310
71973,STANDARD,Wickes,AR,Polk County,America/Chicago,870,34.29,-94.33,1090
72001,STANDARD,Adona,AR,Perry County,America/Chicago,501,35.04,-92.89,350
72002,STANDARD,Alexander,AR,Saline County,America/Chicago,501,34.63,-92.44,16430
72003,STANDARD,Almyra,AR,Arkansas County,America/Chicago,870,34.4,-91.41,650
72004,STANDARD,Altheimer,AR,Jefferson County,America/Chicago,870,34.31,-91.84,870
72005,STANDARD,Amagon,AR,Jackson County,America/Chicago,870,35.56,-91.11,206
72006,STANDARD,Augusta,AR,Woodruff County,America/Chicago,870,35.28,-91.36,1620
72007,STANDARD,Austin,AR,Lonoke County,America/Chicago,,34.99,-91.98,8880
72010,STANDARD,Bald Knob,AR,White County,America/Chicago,501,35.3,-91.57,4880
72011,STANDARD,Bauxite,AR,Saline County,America/Chicago,501,34.55,-92.52,4310
72012,STANDARD,Beebe,AR,White County,America/Chicago,"501,870",35.07,-91.89,11270
72013,STANDARD,Bee Branch,AR,Van Buren County,America/Chicago,501,35.42,-92.41,1560
72015,STANDARD,Benton,AR,Saline County,America/Chicago,501,34.56,-92.57,23620
72016,STANDARD,Bigelow,AR,Perry County,America/Chicago,501,34.99,-92.63,2510
72017,STANDARD,Biscoe,AR,Prairie County,America/Chicago,870,34.9,-91.42,490
72019,STANDARD,Benton,AR,Saline County,America/Chicago,501,34.61,-92.65,25510
72020,STANDARD,Bradford,AR,White County,America/Chicago,501,35.42,-91.45,2910
72021,STANDARD,Brinkley,AR,Monroe County,America/Chicago,870,34.88,-91.18,2840
72022,STANDARD,Bryant,AR,Saline County,America/Chicago,501,34.61,-92.49,15260
72023,STANDARD,Cabot,AR,Lonoke County,America/Chicago,501,34.96,-92.02,33670
72024,STANDARD,Carlisle,AR,Lonoke County,America/Chicago,870,34.78,-91.74,2780
72025,STANDARD,Casa,AR,Perry County,America/Chicago,501,35.02,-93.04,670
72026,STANDARD,Casscoe,AR,Arkansas County,America/Chicago,870,34.5,-91.3,240
72027,STANDARD,Center Ridge,AR,Conway County,America/Chicago,501,35.4,-92.56,1120
72029,STANDARD,Clarendon,AR,Monroe County,America/Chicago,870,34.69,-91.3,1330
72030,STANDARD,Cleveland,AR,Conway County,America/Chicago,501,35.36,-92.7,510
72031,STANDARD,Clinton,AR,Van Buren County,America/Chicago,501,35.58,-92.45,5810
72032,STANDARD,Conway,AR,Faulkner County,America/Chicago,501,35.07,-92.36,27620
72034,STANDARD,Conway,AR,Faulkner County,America/Chicago,501,35.05,-92.5,39200
72036,STANDARD,Cotton Plant,AR,Woodruff County,America/Chicago,870,35,-91.25,460
72038,STANDARD,Crocketts Bluff,AR,Arkansas County,America/Chicago,870,34.45,-91.24,72
72039,STANDARD,Damascus,AR,Faulkner County,America/Chicago,501,35.36,-92.4,1910
72040,STANDARD,Des Arc,AR,Prairie County,America/Chicago,870,34.97,-91.5,2140
72041,STANDARD,De Valls Bluff,AR,Prairie County,America/Chicago,870,34.78,-91.46,1070
72042,STANDARD,De Witt,AR,Arkansas County,America/Chicago,870,34.28,-91.33,3860
72044,STANDARD,Edgemont,AR,Cleburne County,America/Chicago,870,35.64,-92.19,720
72045,STANDARD,El Paso,AR,White County,America/Chicago,501,35.13,-92.03,1030
72046,STANDARD,England,AR,Lonoke County,America/Chicago,501,34.54,-91.96,3210
72047,STANDARD,Enola,AR,Faulkner County,America/Chicago,501,35.2,-92.2,940
72048,STANDARD,Ethel,AR,Arkansas County,America/Chicago,870,34.19,-91.13,113
72051,STANDARD,Fox,AR,Stone County,America/Chicago,870,35.76,-92.3,500
72055,STANDARD,Gillett,AR,Arkansas County,America/Chicago,870,34.11,-91.37,680
72057,STANDARD,Grapevine,AR,Grant County,America/Chicago,870,34.11,-92.3,800
72058,STANDARD,Greenbrier,AR,Faulkner County,America/Chicago,501,35.22,-92.38,16820
72060,STANDARD,Griffithville,AR,White County,America/Chicago,501,35.12,-91.64,510
72061,STANDARD,Guy,AR,Faulkner County,America/Chicago,501,35.32,-92.33,360
72063,STANDARD,Hattieville,AR,Conway County,America/Chicago,501,35.28,-92.79,1370
72064,STANDARD,Hazen,AR,Prairie County,America/Chicago,870,34.78,-91.57,1920
72065,STANDARD,Hensley,AR,Saline County,America/Chicago,501,34.53,-92.25,4680
72067,STANDARD,Higden,AR,Cleburne County,America/Chicago,501,35.56,-92.2,2020
72068,STANDARD,Higginson,AR,White County,America/Chicago,501,35.19,-91.71,460
72069,STANDARD,Holly Grove,AR,Monroe County,America/Chicago,870,34.59,-91.2,940
72070,STANDARD,Houston,AR,Perry County,America/Chicago,501,35.03,-92.69,1430
72072,STANDARD,Humnoke,AR,Lonoke County,America/Chicago,501,34.54,-91.75,340
72073,STANDARD,Humphrey,AR,Arkansas County,America/Chicago,870,34.42,-91.7,930
72076,STANDARD,Jacksonville,AR,Pulaski County,America/Chicago,501,34.86,-92.12,31650
72079,STANDARD,Jefferson,AR,Jefferson County,America/Chicago,,34.39,-92.17,600
72080,STANDARD,Jerusalem,AR,Conway County,America/Chicago,501,35.39,-92.8,530
72081,STANDARD,Judsonia,AR,White County,America/Chicago,501,35.27,-91.64,6400
72082,STANDARD,Kensett,AR,White County,America/Chicago,501,35.23,-91.67,1360
72084,STANDARD,Leola,AR,Grant County,America/Chicago,870,34.16,-92.59,890
72086,STANDARD,Lonoke,AR,Lonoke County,America/Chicago,501,34.78,-91.89,9140
72087,STANDARD,Lonsdale,AR,Saline County,America/Chicago,501,34.54,-92.81,1430
72088,STANDARD,Fairfield Bay,AR,Van Buren County,America/Chicago,501,35.6,-92.26,1610
72101,STANDARD,Mc Crory,AR,Woodruff County,America/Chicago,870,35.25,-91.19,2440
72102,STANDARD,Mc Rae,AR,White County,America/Chicago,"870,501",35.11,-91.82,2210
72103,STANDARD,Mabelvale,AR,Saline County,America/Chicago,501,34.59,-92.38,11480
72104,STANDARD,Malvern,AR,Hot Spring County,America/Chicago,501,34.37,-92.81,17750
72106,STANDARD,Mayflower,AR,Faulkner County,America/Chicago,501,34.97,-92.41,4500
72110,STANDARD,Morrilton,AR,Conway County,America/Chicago,501,35.15,-92.74,9390
72111,STANDARD,Mount Vernon,AR,Faulkner County,America/Chicago,501,35.22,-92.13,1200
72112,STANDARD,Newport,AR,Jackson County,America/Chicago,870,35.62,-91.23,6810
72113,STANDARD,Maumelle,AR,Pulaski County,America/Chicago,501,34.85,-92.41,23430
72114,STANDARD,North Little Rock,AR,Pulaski County,America/Chicago,501,34.76,-92.26,7140
72116,STANDARD,North Little Rock,AR,Pulaski County,America/Chicago,501,34.78,-92.25,18980
72117,STANDARD,North Little Rock,AR,Pulaski County,America/Chicago,501,34.78,-92.14,11720
72118,STANDARD,North Little Rock,AR,Pulaski County,America/Chicago,501,34.84,-92.33,18120
72120,STANDARD,Sherwood,AR,Pulaski County,America/Chicago,,34.83,-92.2,31160
72121,STANDARD,Pangburn,AR,White County,America/Chicago,501,35.42,-91.83,2120
72122,STANDARD,Paron,AR,Saline County,America/Chicago,501,34.8,-92.85,1120
72125,STANDARD,Perry,AR,Perry County,America/Chicago,501,35.04,-92.79,670
72126,STANDARD,Perryville,AR,Perry County,America/Chicago,501,35,-92.8,2970
72127,STANDARD,Plumerville,AR,Conway County,America/Chicago,501,35.16,-92.64,1980
72128,STANDARD,Poyen,AR,Grant County,America/Chicago,870,34.32,-92.64,730
72129,STANDARD,Prattsville,AR,Grant County,America/Chicago,870,34.31,-92.54,1120
72130,STANDARD,Prim,AR,Cleburne County,America/Chicago,870,35.66,-92.06,350
72131,STANDARD,Quitman,AR,Cleburne County,America/Chicago,501,35.38,-92.21,3800
72132,STANDARD,Redfield,AR,Jefferson County,America/Chicago,501,34.44,-92.18,3110
72134,STANDARD,Roe,AR,Monroe County,America/Chicago,870,34.63,-91.38,270
72135,STANDARD,Roland,AR,Pulaski County,America/Chicago,501,34.89,-92.52,2520
72136,STANDARD,Romance,AR,White County,America/Chicago,501,35.21,-92.06,1590
72137,STANDARD,Rose Bud,AR,White County,America/Chicago,501,35.33,-92.07,2090
72140,STANDARD,Saint Charles,AR,Arkansas County,America/Chicago,870,34.37,-91.13,240
72141,STANDARD,Scotland,AR,Van Buren County,America/Chicago,501,35.52,-92.66,360
72142,STANDARD,Scott,AR,Lonoke County,America/Chicago,501,34.68,-92.12,2170
72143,STANDARD,Searcy,AR,White County,America/Chicago,501,35.24,-91.73,27340
72150,STANDARD,Sheridan,AR,Grant County,America/Chicago,870,34.3,-92.4,10620
72152,STANDARD,Sherrill,AR,Jefferson County,America/Chicago,870,34.38,-91.95,270
72153,STANDARD,Shirley,AR,Van Buren County,America/Chicago,501,35.64,-92.31,1830
72156,STANDARD,Solgohachia,AR,Conway County,America/Chicago,501,35.27,-92.67,500
72157,STANDARD,Springfield,AR,Conway County,America/Chicago,501,35.27,-92.53,1280
72160,STANDARD,Stuttgart,AR,Arkansas County,America/Chicago,870,34.49,-91.55,8360
72165,STANDARD,Thida,AR,Independence County,America/Chicago,,35.58,-91.46,152
72166,STANDARD,Tichnor,AR,Arkansas County,America/Chicago,870,34.05,-91.23,200
72167,STANDARD,Traskwood,AR,Saline County,America/Chicago,501,34.45,-92.66,1440
72168,STANDARD,Tucker,AR,Jefferson County,America/Chicago,501,34.43,-91.89,220
72173,STANDARD,Vilonia,AR,Faulkner County,America/Chicago,501,35.08,-92.21,9100
72175,STANDARD,Wabbaseka,AR,Jefferson County,America/Chicago,870,34.36,-91.79,240
72176,STANDARD,Ward,AR,Lonoke County,America/Chicago,870,35.01,-91.95,8130
72179,STANDARD,Wilburn,AR,Cleburne County,America/Chicago,,35.5,-91.86,400
72181,STANDARD,Wooster,AR,Faulkner County,America/Chicago,501,35.16,-92.45,260
72198,STANDARD,North Little Rock,AR,Pulaski County,America/Chicago,501,34.77,-92.27,0
72201,STANDARD,Little Rock,AR,Pulaski County,America/Chicago,501,34.75,-92.28,770
72202,STANDARD,Little Rock,AR,Pulaski County,America/Chicago,501,34.73,-92.23,6920
72204,STANDARD,Little Rock,AR,Pulaski County,America/Chicago,501,34.72,-92.35,23010
72205,STANDARD,Little Rock,AR,Pulaski County,America/Chicago,501,34.75,-92.35,17690
72206,STANDARD,Little Rock,AR,Pulaski County,America/Chicago,501,34.63,-92.23,17430
72207,STANDARD,Little Rock,AR,Pulaski County,America/Chicago,501,34.77,-92.35,9820
72209,STANDARD,Little Rock,AR,Pulaski County,America/Chicago,501,34.68,-92.35,25080
72210,STANDARD,Little Rock,AR,Pulaski County,America/Chicago,501,34.71,-92.51,13820
72211,STANDARD,Little Rock,AR,Pulaski County,America/Chicago,501,34.75,-92.42,20250
72212,STANDARD,Little Rock,AR,Pulaski County,America/Chicago,501,34.79,-92.42,12200
72223,STANDARD,Little Rock,AR,Pulaski County,America/Chicago,501,34.79,-92.51,23530
72227,STANDARD,Little Rock,AR,Pulaski County,America/Chicago,501,34.78,-92.37,9600
72301,STANDARD,West Memphis,AR,Crittenden County,America/Chicago,870,35.14,-90.18,19380
72315,STANDARD,Blytheville,AR,Mississippi County,America/Chicago,870,35.93,-89.92,16060
72320,STANDARD,Brickeys,AR,Lee County,America/Chicago,870,34.85,-90.58,157
72324,STANDARD,Cherry Valley,AR,Cross County,America/Chicago,870,35.4,-90.75,1590
72326,STANDARD,Colt,AR,St. Francis County,America/Chicago,870,35.13,-90.81,1810
72327,STANDARD,Crawfordsville,AR,Crittenden County,America/Chicago,870,35.22,-90.32,1220
72330,STANDARD,Dyess,AR,Mississippi County,America/Chicago,870,35.58,-90.21,450
72331,STANDARD,Earle,AR,Crittenden County,America/Chicago,870,35.27,-90.46,1880
72333,STANDARD,Elaine,AR,Phillips County,America/Chicago,870,34.3,-90.85,580
72335,STANDARD,Forrest City,AR,St. Francis County,America/Chicago,870,35.01,-90.78,9970
72338,STANDARD,Frenchmans Bayou,AR,Mississippi County,America/Chicago,870,35.41,-90.15,103
72342,STANDARD,Helena,AR,Phillips County,America/Chicago,870,34.52,-90.6,2850
72346,STANDARD,Heth,AR,St. Francis County,America/Chicago,870,35.06,-90.46,370
72347,STANDARD,Hickory Ridge,AR,Cross County,America/Chicago,870,35.4,-90.99,470
72348,STANDARD,Hughes,AR,St. Francis County,America/Chicago,870,34.94,-90.47,1520
72350,STANDARD,Joiner,AR,Mississippi County,America/Chicago,870,35.5,-90.14,670
72354,STANDARD,Lepanto,AR,Poinsett County,America/Chicago,870,35.6,-90.33,1720
72355,STANDARD,Lexa,AR,Phillips County,America/Chicago,,34.59,-90.75,1680
72358,STANDARD,Luxora,AR,Mississippi County,America/Chicago,870,35.75,-89.93,940
72360,STANDARD,Marianna,AR,Lee County,America/Chicago,870,34.77,-90.76,4100
72364,STANDARD,Marion,AR,Crittenden County,America/Chicago,870,35.2,-90.2,14560
72365,STANDARD,Marked Tree,AR,Poinsett County,America/Chicago,870,35.53,-90.41,2000
72366,STANDARD,Marvell,AR,Phillips County,America/Chicago,870,34.55,-90.91,1370
72368,STANDARD,Moro,AR,Lee County,America/Chicago,870,34.79,-90.98,700
72370,STANDARD,Osceola,AR,Mississippi County,America/Chicago,870,35.7,-89.99,5910
72372,STANDARD,Palestine,AR,St. Francis County,America/Chicago,870,34.97,-90.9,1400
72373,STANDARD,Parkin,AR,Cross County,America/Chicago,870,35.26,-90.55,810
72374,STANDARD,Poplar Grove,AR,Phillips County,America/Chicago,870,34.57,-90.83,500
72376,STANDARD,Proctor,AR,Crittenden County,America/Chicago,870,35.08,-90.24,1320
72384,STANDARD,Turrell,AR,Crittenden County,America/Chicago,870,35.37,-90.25,590
72386,STANDARD,Tyronza,AR,Poinsett County,America/Chicago,870,35.49,-90.35,1240
72390,STANDARD,West Helena,AR,Phillips County,America/Chicago,870,34.54,-90.64,6150
72392,STANDARD,Wheatley,AR,St. Francis County,America/Chicago,870,34.91,-91.1,340
72394,STANDARD,Widener,AR,St. Francis County,America/Chicago,870,35.02,-90.68,360
72395,STANDARD,Wilson,AR,Mississippi County,America/Chicago,870,35.56,-90.04,750
72396,STANDARD,Wynne,AR,Cross County,America/Chicago,870,35.23,-90.78,10950
72401,STANDARD,Jonesboro,AR,Craighead County,America/Chicago,870,35.82,-90.68,31510
72404,STANDARD,Jonesboro,AR,Craighead County,America/Chicago,870,35.77,-90.78,25100
72405,STANDARD,Jonesboro,AR,Craighead County,,,35.85,-90.65,0
72410,STANDARD,Alicia,AR,Lawrence County,America/Chicago,870,35.89,-91.08,350
72411,STANDARD,Bay,AR,Craighead County,America/Chicago,870,35.74,-90.55,1890
72412,STANDARD,Beech Grove,AR,Greene County,America/Chicago,870,36.16,-90.61,420
72413,STANDARD,Biggers,AR,Randolph County,America/Chicago,870,36.33,-90.8,420
72414,STANDARD,Black Oak,AR,Craighead County,America/Chicago,870,35.83,-90.36,330
72415,STANDARD,Black Rock,AR,Lawrence County,America/Chicago,870,36.1,-91.1,1130
72416,STANDARD,Bono,AR,Craighead County,America/Chicago,870,35.91,-90.79,4810
72417,STANDARD,Brookland,AR,Craighead County,America/Chicago,870,35.9,-90.58,4920
72419,STANDARD,Caraway,AR,Craighead County,America/Chicago,870,35.75,-90.33,1210
72421,STANDARD,Cash,AR,Craighead County,America/Chicago,870,35.79,-90.93,420
72422,STANDARD,Corning,AR,Clay County,America/Chicago,870,36.41,-90.58,3350
72425,STANDARD,Delaplaine,AR,Greene County,America/Chicago,870,36.23,-90.72,290
72428,STANDARD,Etowah,AR,Mississippi County,America/Chicago,870,35.74,-90.22,183
72429,STANDARD,Fisher,AR,Poinsett County,America/Chicago,870,35.49,-90.97,250
72430,STANDARD,Greenway,AR,Clay County,America/Chicago,870,36.34,-90.22,270
72432,STANDARD,Harrisburg,AR,Poinsett County,America/Chicago,870,35.56,-90.72,4800
72433,STANDARD,Hoxie,AR,Lawrence County,America/Chicago,870,36.04,-90.97,1920
72434,STANDARD,Imboden,AR,Lawrence County,America/Chicago,870,36.2,-91.17,1660
72435,STANDARD,Knobel,AR,Clay County,America/Chicago,870,36.31,-90.6,250
72436,STANDARD,Lafe,AR,Greene County,America/Chicago,870,36.2,-90.5,850
72437,STANDARD,Lake City,AR,Craighead County,America/Chicago,870,35.81,-90.44,2760
72438,STANDARD,Leachville,AR,Mississippi County,America/Chicago,870,35.92,-90.25,1860
72439,STANDARD,Light,AR,Greene County,America/Chicago,870,36.07,-90.74,0
72440,STANDARD,Lynn,AR,Lawrence County,America/Chicago,870,36,-91.25,250
72442,STANDARD,Manila,AR,Mississippi County,America/Chicago,870,35.88,-90.16,4020
72443,STANDARD,Marmaduke,AR,Greene County,America/Chicago,870,36.18,-90.38,2360
72444,STANDARD,Maynard,AR,Randolph County,America/Chicago,870,36.42,-90.9,1420
72447,STANDARD,Monette,AR,Craighead County,America/Chicago,870,35.89,-90.34,1480
72450,STANDARD,Paragould,AR,Greene County,America/Chicago,870,36.05,-90.51,31870
72453,STANDARD,Peach Orchard,AR,Clay County,America/Chicago,870,36.28,-90.66,208
72454,STANDARD,Piggott,AR,Clay County,America/Chicago,870,36.38,-90.2,3920
72455,STANDARD,Pocahontas,AR,Randolph County,America/Chicago,870,36.26,-90.96,10890
72456,STANDARD,Pollard,AR,Clay County,America/Chicago,870,36.43,-90.26,390
72458,STANDARD,Powhatan,AR,Lawrence County,America/Chicago,870,36.07,-91.16,530
72459,STANDARD,Ravenden,AR,Lawrence County,America/Chicago,870,36.23,-91.25,920
72460,STANDARD,Ravenden Springs,AR,Randolph County,America/Chicago,870,36.31,-91.22,580
72461,STANDARD,Rector,AR,Clay County,America/Chicago,870,36.26,-90.29,2620
72466,STANDARD,Smithville,AR,Lawrence County,America/Chicago,870,36.08,-91.3,1050
72469,STANDARD,Strawberry,AR,Lawrence County,America/Chicago,870,35.96,-91.32,810
72470,STANDARD,Success,AR,Clay County,America/Chicago,870,36.45,-90.72,220
72471,STANDARD,Swifton,AR,Jackson County,America/Chicago,870,35.82,-91.12,720
72472,STANDARD,Trumann,AR,Poinsett County,America/Chicago,870,35.67,-90.51,7310
72473,STANDARD,Tuckerman,AR,Jackson County,America/Chicago,870,35.72,-91.2,1860
72476,STANDARD,Walnut Ridge,AR,Lawrence County,America/Chicago,870,36.06,-90.95,5170
72478,STANDARD,Warm Springs,AR,Randolph County,America/Chicago,870,36.45,-91.06,270
72479,STANDARD,Weiner,AR,Poinsett County,America/Chicago,870,35.61,-90.9,990
72482,STANDARD,Williford,AR,Sharp County,America/Chicago,870,36.25,-91.36,830
72501,STANDARD,Batesville,AR,Independence County,America/Chicago,870,35.76,-91.62,20230
72512,STANDARD,Horseshoe Bend,AR,Izard County,America/Chicago,870,36.22,-91.74,1570
72513,STANDARD,Ash Flat,AR,Sharp County,America/Chicago,870,36.22,-91.6,2200
72515,STANDARD,Bexar,AR,Fulton County,America/Chicago,870,36.28,-92.06,51
72517,STANDARD,Brockwell,AR,Izard County,America/Chicago,870,36.13,-91.96,280
72519,STANDARD,Calico Rock,AR,Izard County,America/Chicago,870,36.12,-92.13,1940
72520,STANDARD,Camp,AR,Fulton County,America/Chicago,870,36.39,-91.72,210
72521,STANDARD,Cave City,AR,Sharp County,America/Chicago,870,35.94,-91.54,3890
72522,STANDARD,Charlotte,AR,Independence County,America/Chicago,,35.81,-91.47,370
72523,STANDARD,Concord,AR,Cleburne County,America/Chicago,870,35.66,-91.84,710
72524,STANDARD,Cord,AR,Independence County,America/Chicago,,35.8,-91.3,330
72527,STANDARD,Desha,AR,Independence County,America/Chicago,870,35.74,-91.68,520
72528,STANDARD,Dolph,AR,Izard County,America/Chicago,870,36.23,-92.14,188
72529,STANDARD,Cherokee Village,AR,Sharp County,America/Chicago,870,36.3,-91.53,3240
72530,STANDARD,Drasco,AR,Cleburne County,America/Chicago,870,35.66,-91.93,1460
72531,STANDARD,Elizabeth,AR,Fulton County,America/Chicago,,36.31,-92.09,590
72532,STANDARD,Evening Shade,AR,Sharp County,America/Chicago,870,36.07,-91.62,1150
72533,STANDARD,Fifty Six,AR,Stone County,America/Chicago,870,36.02,-92.22,240
72534,STANDARD,Floral,AR,Independence County,America/Chicago,,35.61,-91.73,1090
72536,STANDARD,Franklin,AR,Izard County,America/Chicago,870,36.17,-91.77,330
72537,STANDARD,Gamaliel,AR,Baxter County,America/Chicago,870,36.46,-92.2,640
72538,STANDARD,Gepp,AR,Fulton County,America/Chicago,870,36.44,-92.09,310
72539,STANDARD,Glencoe,AR,Fulton County,America/Chicago,870,36.33,-91.71,330
72540,STANDARD,Guion,AR,Izard County,America/Chicago,870,35.92,-91.94,108
72542,STANDARD,Hardy,AR,Sharp County,America/Chicago,870,36.32,-91.48,3100
72543,STANDARD,Heber Springs,AR,Cleburne County,America/Chicago,501,35.5,-92.03,10040
72544,STANDARD,Henderson,AR,Baxter County,America/Chicago,870,36.4,-92.19,460
72546,STANDARD,Ida,AR,Cleburne County,America/Chicago,,35.58,-91.94,185
72550,STANDARD,Locust Grove,AR,Independence County,America/Chicago,870,35.71,-91.75,750
72554,STANDARD,Mammoth Spring,AR,Fulton County,America/Chicago,870,36.49,-91.54,2120
72555,STANDARD,Marcella,AR,Stone County,America/Chicago,870,35.78,-91.88,117
72556,STANDARD,Melbourne,AR,Izard County,America/Chicago,870,36.06,-91.89,2850
72560,STANDARD,Mountain View,AR,Stone County,America/Chicago,870,35.87,-92.11,7030
72561,STANDARD,Mount Pleasant,AR,Izard County,America/Chicago,870,35.98,-91.77,670
72562,STANDARD,Newark,AR,Independence County,America/Chicago,870,35.7,-91.44,1670
72564,STANDARD,Oil Trough,AR,Independence County,America/Chicago,870,35.62,-91.46,410
72565,STANDARD,Oxford,AR,Izard County,America/Chicago,870,36.2,-91.91,690
72566,STANDARD,Pineville,AR,Izard County,America/Chicago,870,36.22,-92.08,380
72567,STANDARD,Pleasant Grove,AR,Stone County,America/Chicago,870,35.81,-91.93,220
72568,STANDARD,Pleasant Plains,AR,Independence County,America/Chicago,501,35.55,-91.62,1470
72569,STANDARD,Poughkeepsie,AR,Sharp County,America/Chicago,870,36.15,-91.4,370
72571,STANDARD,Rosie,AR,Independence County,America/Chicago,,35.65,-91.53,310
72572,STANDARD,Saffell,AR,Lawrence County,America/Chicago,870,35.9,-91.29,238
72573,STANDARD,Sage,AR,Izard County,America/Chicago,870,36.04,-91.82,280
72576,STANDARD,Salem,AR,Fulton County,America/Chicago,870,36.37,-91.82,3080
72577,STANDARD,Sidney,AR,Izard County,America/Chicago,870,36,-91.65,490
72578,STANDARD,Sturkie,AR,Fulton County,America/Chicago,870,36.45,-91.89,132
72579,STANDARD,Sulphur Rock,AR,Independence County,America/Chicago,,35.75,-91.49,1170
72581,STANDARD,Tumbling Shoals,AR,Cleburne County,America/Chicago,,35.55,-91.95,760
72583,STANDARD,Viola,AR,Fulton County,America/Chicago,870,36.39,-91.98,1380
72584,STANDARD,Violet Hill,AR,Izard County,America/Chicago,870,36.16,-91.85,480
72585,STANDARD,Wideman,AR,Izard County,America/Chicago,870,36.21,-92,186
72587,STANDARD,Wiseman,AR,Izard County,America/Chicago,870,36.23,-91.82,123
72601,STANDARD,Harrison,AR,Boone County,America/Chicago,870,36.24,-93.11,23890
72611,STANDARD,Alpena,AR,Carroll County,America/Chicago,870,36.29,-93.29,1450
72616,STANDARD,Berryville,AR,Carroll County,America/Chicago,870,36.37,-93.56,9040
72617,STANDARD,Big Flat,AR,Baxter County,America/Chicago,870,36,-92.4,222
72619,STANDARD,Bull Shoals,AR,Marion County,America/Chicago,870,36.37,-92.58,1490
72623,STANDARD,Clarkridge,AR,Baxter County,America/Chicago,870,36.45,-92.34,540
72624,STANDARD,Compton,AR,Newton County,America/Chicago,870,36.06,-93.38,380
72626,STANDARD,Cotter,AR,Baxter County,America/Chicago,870,36.28,-92.52,880
72628,STANDARD,Deer,AR,Newton County,America/Chicago,"479,870",35.84,-93.28,510
72629,STANDARD,Dennard,AR,Van Buren County,America/Chicago,501,35.72,-92.58,420
72631,STANDARD,Eureka Springs,AR,Carroll County,America/Chicago,479,36.46,-93.71,3320
72632,STANDARD,Eureka Springs,AR,Carroll County,America/Chicago,479,36.39,-93.73,3470
72633,STANDARD,Everton,AR,Boone County,America/Chicago,870,36.15,-92.9,1390
72634,STANDARD,Flippin,AR,Marion County,America/Chicago,870,36.27,-92.59,3950
72635,STANDARD,Gassville,AR,Baxter County,America/Chicago,870,36.28,-92.49,3060
72638,STANDARD,Green Forest,AR,Carroll County,America/Chicago,870,36.33,-93.42,6240
72639,STANDARD,Harriet,AR,Searcy County,America/Chicago,870,35.98,-92.49,380
72640,STANDARD,Hasty,AR,Newton County,America/Chicago,870,36.01,-93.04,290
72641,STANDARD,Jasper,AR,Newton County,America/Chicago,870,36,-93.18,1890
72642,STANDARD,Lakeview,AR,Baxter County,America/Chicago,870,36.37,-92.53,1480
72644,STANDARD,Lead Hill,AR,Boone County,America/Chicago,870,36.41,-92.9,1990
72645,STANDARD,Leslie,AR,Searcy County,America/Chicago,870,35.82,-92.55,1270
72648,STANDARD,Marble Falls,AR,Newton County,America/Chicago,870,36.08,-93.15,580
72650,STANDARD,Marshall,AR,Searcy County,America/Chicago,870,35.9,-92.63,3450
72651,STANDARD,Midway,AR,Baxter County,America/Chicago,870,36.39,-92.48,1000
72653,STANDARD,Mountain Home,AR,Baxter County,America/Chicago,870,36.33,-92.37,23090
72655,STANDARD,Mount Judea,AR,Newton County,America/Chicago,870,35.83,-93.04,330
72657,STANDARD,Timbo,AR,Stone County,America/Chicago,870,35.86,-92.3,0
72658,STANDARD,Norfork,AR,Baxter County,America/Chicago,870,36.2,-92.28,1370
72659,STANDARD,Norfork,AR,Baxter County,America/Chicago,870,36.2,-92.28,0
72660,STANDARD,Oak Grove,AR,Carroll County,America/Chicago,870,36.48,-93.38,420
72661,STANDARD,Oakland,AR,Marion County,America/Chicago,870,36.44,-92.57,420
72662,STANDARD,Omaha,AR,Boone County,America/Chicago,870,36.46,-93.19,2530
72663,STANDARD,Onia,AR,Stone County,America/Chicago,870,35.94,-92.33,240
72666,STANDARD,Parthenon,AR,Newton County,America/Chicago,870,35.94,-93.27,200
72668,STANDARD,Peel,AR,Marion County,America/Chicago,870,36.41,-92.76,330
72670,STANDARD,Ponca,AR,Newton County,America/Chicago,870,35.98,-93.39,133
72675,STANDARD,Saint Joe,AR,Searcy County,America/Chicago,870,35.98,-92.81,1010
72679,STANDARD,Tilly,AR,Pope County,America/Chicago,,35.73,-92.83,590
72680,STANDARD,Timbo,AR,Stone County,America/Chicago,870,35.86,-92.3,570
72682,STANDARD,Valley Springs,AR,Marion County,America/Chicago,870,36.14,-92.74,430
72683,STANDARD,Vendor,AR,Newton County,America/Chicago,870,35.94,-93.1,280
72685,STANDARD,Western Grove,AR,Newton County,America/Chicago,870,36.1,-92.95,1030
72686,STANDARD,Witts Springs,AR,Searcy County,America/Chicago,870,35.78,-92.83,185
72687,STANDARD,Yellville,AR,Marion County,America/Chicago,870,36.22,-92.68,4690
72701,STANDARD,Fayetteville,AR,Washington County,America/Chicago,479,36.07,-94.15,28060
72703,STANDARD,Fayetteville,AR,Washington County,America/Chicago,479,36.12,-94.04,26850
72704,STANDARD,Fayetteville,AR,Washington County,America/Chicago,479,36.11,-94.3,25130
72712,STANDARD,Bentonville,AR,Benton County,America/Chicago,479,36.36,-94.2,35890
72713,STANDARD,Bentonville,AR,Benton County,America/Chicago,,36.33,-94.24,0
72714,STANDARD,Bella Vista,AR,Benton County,America/Chicago,479,36.47,-94.22,12530
72715,STANDARD,Bella Vista,AR,Benton County,America/Chicago,479,36.46,-94.29,15770
72717,STANDARD,Canehill,AR,Washington County,America/Chicago,479,35.84,-94.42,640
72718,STANDARD,Cave Springs,AR,Benton County,America/Chicago,479,36.26,-94.22,5060
72719,STANDARD,Centerton,AR,Benton County,America/Chicago,479,36.36,-94.28,15880
72721,STANDARD,Combs,AR,Madison County,America/Chicago,,35.81,-93.83,310
72722,STANDARD,Decatur,AR,Benton County,America/Chicago,479,36.33,-94.45,2790
72727,STANDARD,Elkins,AR,Washington County,America/Chicago,479,36.01,-94.02,5670
72729,STANDARD,Evansville,AR,Washington County,America/Chicago,479,35.77,-94.46,220
72730,STANDARD,Farmington,AR,Washington County,America/Chicago,479,36.04,-94.24,9180
72732,STANDARD,Garfield,AR,Benton County,America/Chicago,479,36.45,-93.96,4270
72734,STANDARD,Gentry,AR,Benton County,America/Chicago,479,36.26,-94.48,7330
72736,STANDARD,Gravette,AR,Benton County,America/Chicago,479,36.42,-94.45,6370
72738,STANDARD,Hindsville,AR,Madison County,America/Chicago,479,36.14,-93.86,2180
72739,STANDARD,Hiwasse,AR,Benton County,America/Chicago,479,36.43,-94.33,470
72740,STANDARD,Huntsville,AR,Madison County,America/Chicago,479,36.08,-93.73,8740
72742,STANDARD,Kingston,AR,Madison County,America/Chicago,"870,479",36.05,-93.52,420
72744,STANDARD,Lincoln,AR,Washington County,America/Chicago,479,35.94,-94.42,4520
72745,STANDARD,Lowell,AR,Benton County,America/Chicago,479,36.26,-94.13,12400
72747,STANDARD,Maysville,AR,Benton County,America/Chicago,479,36.37,-94.58,262
72749,STANDARD,Morrow,AR,Washington County,America/Chicago,479,35.87,-94.44,168
72751,STANDARD,Pea Ridge,AR,Benton County,America/Chicago,479,36.45,-94.11,7800
72752,STANDARD,Pettigrew,AR,Madison County,America/Chicago,479,35.82,-93.59,230
72753,STANDARD,Prairie Grove,AR,Washington County,America/Chicago,479,35.97,-94.31,9630
72756,STANDARD,Rogers,AR,Benton County,America/Chicago,479,36.33,-94.13,36530
72758,STANDARD,Rogers,AR,Benton County,America/Chicago,479,36.3,-94.14,40810
72760,STANDARD,Saint Paul,AR,Madison County,America/Chicago,479,35.83,-93.71,240
72761,STANDARD,Siloam Springs,AR,Benton County,America/Chicago,479,36.18,-94.54,20930
72762,STANDARD,Springdale,AR,Washington County,America/Chicago,479,36.18,-94.23,38480
72764,STANDARD,Springdale,AR,Washington County,America/Chicago,479,36.18,-94.14,52080
72768,STANDARD,Sulphur Springs,AR,Benton County,America/Chicago,479,36.48,-94.45,970
72769,STANDARD,Summers,AR,Washington County,America/Chicago,479,35.98,-94.48,850
72773,STANDARD,Wesley,AR,Madison County,America/Chicago,479,36.03,-93.92,960
72774,STANDARD,West Fork,AR,Washington County,America/Chicago,479,35.93,-94.18,5690
72776,STANDARD,Witter,AR,Madison County,America/Chicago,479,35.93,-93.68,450
72801,STANDARD,Russellville,AR,Pope County,America/Chicago,479,35.27,-93.14,11980
72802,STANDARD,Russellville,AR,Pope County,America/Chicago,479,35.32,-93.08,19440
72821,STANDARD,Altus,AR,Franklin County,America/Chicago,479,35.44,-93.76,1250
72823,STANDARD,Atkins,AR,Pope County,America/Chicago,"501,479",35.24,-92.94,5150
72824,STANDARD,Belleville,AR,Yell County,America/Chicago,479,35.09,-93.44,1270
72827,STANDARD,Bluffton,AR,Yell County,America/Chicago,479,34.89,-93.59,182
72828,STANDARD,Briggsville,AR,Yell County,America/Chicago,479,34.93,-93.53,75
72830,STANDARD,Clarksville,AR,Johnson County,America/Chicago,479,35.45,-93.47,12980
72832,STANDARD,Coal Hill,AR,Johnson County,America/Chicago,479,35.43,-93.66,700
72833,STANDARD,Danville,AR,Yell County,America/Chicago,479,35.05,-93.39,3940
72834,STANDARD,Dardanelle,AR,Yell County,America/Chicago,479,35.22,-93.16,8610
72835,STANDARD,Delaware,AR,Logan County,America/Chicago,479,35.28,-93.35,690
72837,STANDARD,Dover,AR,Pope County,America/Chicago,479,35.4,-93.11,6830
72838,STANDARD,Gravelly,AR,Yell County,America/Chicago,479,34.91,-93.68,137
72839,STANDARD,Hagarville,AR,Johnson County,America/Chicago,479,35.63,-93.24,210
72840,STANDARD,Hartman,AR,Johnson County,America/Chicago,479,35.43,-93.61,1570
72841,STANDARD,Harvey,AR,Scott County,America/Chicago,479,34.86,-93.76,132
72842,STANDARD,Havana,AR,Yell County,America/Chicago,479,35.11,-93.52,1010
72843,STANDARD,Hector,AR,Pope County,America/Chicago,479,35.46,-92.97,1850
72845,STANDARD,Knoxville,AR,Johnson County,America/Chicago,479,35.37,-93.36,990
72846,STANDARD,Lamar,AR,Johnson County,America/Chicago,479,35.43,-93.38,3310
72847,STANDARD,London,AR,Pope County,America/Chicago,479,35.32,-93.24,2190
72851,STANDARD,New Blaine,AR,Logan County,America/Chicago,479,35.26,-93.44,580
72852,STANDARD,Oark,AR,Johnson County,America/Chicago,479,35.71,-93.57,250
72853,STANDARD,Ola,AR,Yell County,America/Chicago,"501,479",35.03,-93.22,1450
72854,STANDARD,Ozone,AR,Johnson County,America/Chicago,479,35.67,-93.43,500
72855,STANDARD,Paris,AR,Logan County,America/Chicago,479,35.28,-93.72,4820
72856,STANDARD,Pelsor,AR,Newton County,America/Chicago,870,35.79,-93.08,340
72857,STANDARD,Plainview,AR,Yell County,America/Chicago,"479,501",34.98,-93.29,930
72858,STANDARD,Pottsville,AR,Pope County,America/Chicago,479,35.23,-93.05,3350
72860,STANDARD,Rover,AR,Yell County,America/Chicago,501,34.93,-93.4,280
72863,STANDARD,Scranton,AR,Logan County,America/Chicago,479,35.36,-93.53,1430
72865,STANDARD,Subiaco,AR,Logan County,America/Chicago,479,35.29,-93.63,900
72901,STANDARD,Fort Smith,AR,Sebastian County,America/Chicago,479,35.37,-94.42,15440
72903,STANDARD,Fort Smith,AR,Sebastian County,America/Chicago,479,35.36,-94.38,20270
72904,STANDARD,Fort Smith,AR,Sebastian County,America/Chicago,479,35.41,-94.38,18260
72908,STANDARD,Fort Smith,AR,Sebastian County,America/Chicago,479,35.31,-94.41,12030
72916,STANDARD,Fort Smith,AR,Sebastian County,America/Chicago,479,35.26,-94.39,8980
72921,STANDARD,Alma,AR,Crawford County,America/Chicago,479,35.48,-94.22,12370
72923,STANDARD,Barling,AR,Sebastian County,America/Chicago,479,35.32,-94.3,3920
72926,STANDARD,Boles,AR,Scott County,America/Chicago,479,34.71,-94.02,410
72927,STANDARD,Booneville,AR,Logan County,America/Chicago,479,35.13,-93.91,6550
72928,STANDARD,Branch,AR,Franklin County,America/Chicago,479,35.3,-93.95,590
72930,STANDARD,Cecil,AR,Franklin County,America/Chicago,479,35.43,-93.95,400
72932,STANDARD,Cedarville,AR,Crawford County,America/Chicago,479,35.57,-94.37,1380
72933,STANDARD,Charleston,AR,Franklin County,America/Chicago,479,35.29,-94.04,4140
72934,STANDARD,Chester,AR,Crawford County,America/Chicago,479,35.67,-94.17,630
72936,STANDARD,Greenwood,AR,Sebastian County,America/Chicago,479,35.21,-94.23,13260
72937,STANDARD,Hackett,AR,Sebastian County,America/Chicago,479,35.18,-94.41,2970
72938,STANDARD,Hartford,AR,Sebastian County,America/Chicago,479,35.02,-94.37,950
72940,STANDARD,Huntington,AR,Sebastian County,America/Chicago,479,35.08,-94.26,2010
72941,STANDARD,Lavaca,AR,Sebastian County,America/Chicago,479,35.33,-94.18,4580
72943,STANDARD,Magazine,AR,Logan County,America/Chicago,479,35.15,-93.8,2040
72944,STANDARD,Mansfield,AR,Sebastian County,America/Chicago,479,35.05,-94.24,2260
72946,STANDARD,Mountainburg,AR,Crawford County,America/Chicago,479,35.63,-94.16,2720
72947,STANDARD,Mulberry,AR,Crawford County,America/Chicago,479,35.5,-94.07,3020
72948,STANDARD,Natural Dam,AR,Crawford County,America/Chicago,479,35.65,-94.4,360
72949,STANDARD,Ozark,AR,Franklin County,America/Chicago,479,35.49,-93.84,7820
72950,STANDARD,Parks,AR,Scott County,America/Chicago,479,34.79,-93.87,270
72951,STANDARD,Ratcliff,AR,Logan County,America/Chicago,479,35.3,-93.88,820
72952,STANDARD,Rudy,AR,Crawford County,America/Chicago,479,35.52,-94.27,2100
72955,STANDARD,Uniontown,AR,Crawford County,America/Chicago,479,35.61,-94.44,400
72956,STANDARD,Van Buren,AR,Crawford County,America/Chicago,479,35.44,-94.35,28280
72958,STANDARD,Waldron,AR,Scott County,America/Chicago,479,34.89,-94.09,5670
72959,STANDARD,Winslow,AR,Washington County,America/Chicago,479,35.8,-94.13,2330
85003,STANDARD,Phoenix,AZ,Maricopa County,America/Phoenix,"480,623,602,928",33.45,-112.08,6830
85004,STANDARD,Phoenix,AZ,Maricopa County,America/Phoenix,"520,928,480,602,623",33.44,-112.07,5610
85006,STANDARD,Phoenix,AZ,Maricopa County,America/Phoenix,"480,602,928,623",33.46,-112.05,18420
85007,STANDARD,Phoenix,AZ,Maricopa County,America/Phoenix,602,33.45,-112.09,11230
85008,STANDARD,Phoenix,AZ,Maricopa County,America/Phoenix,"602,623,480",33.46,-111.98,46960
85009,STANDARD,Phoenix,AZ,Maricopa County,America/Phoenix,"480,623,602",33.44,-112.13,38850
85012,STANDARD,Phoenix,AZ,Maricopa County,America/Phoenix,"623,928,480,520,602",33.5,-112.07,6750
85013,STANDARD,Phoenix,AZ,Maricopa County,America/Phoenix,"480,520,602,623,928",33.5,-112.08,17240
85014,STANDARD,Phoenix,AZ,Maricopa County,America/Phoenix,"480,520,602,623,928",33.5,-112.05,20850
85015,STANDARD,Phoenix,AZ,Maricopa County,America/Phoenix,602,33.5,-112.1,32100
85016,STANDARD,Phoenix,AZ,Maricopa County,America/Phoenix,"480,602,623",33.5,-112.02,31250
85017,STANDARD,Phoenix,AZ,Maricopa County,America/Phoenix,602,33.5,-112.12,30780
85018,STANDARD,Phoenix,AZ,Maricopa County,America/Phoenix,"480,623,602",33.5,-111.98,31950
85019,STANDARD,Phoenix,AZ,Maricopa County,America/Phoenix,"602,623",33.5,-112.14,23900
85020,STANDARD,Phoenix,AZ,Maricopa County,America/Phoenix,"480,602,623",33.57,-112.05,28400
85021,STANDARD,Phoenix,AZ,Maricopa County,America/Phoenix,"480,623,602",33.55,-112.09,32470
85022,STANDARD,Phoenix,AZ,Maricopa County,America/Phoenix,602,33.62,-112.05,42100
85023,STANDARD,Phoenix,AZ,Maricopa County,America/Phoenix,"602,623",33.63,-112.09,30240
85024,STANDARD,Phoenix,AZ,Maricopa County,America/Phoenix,623,33.68,-112.04,23430
85025,STANDARD,Phoenix,AZ,Maricopa County,America/Phoenix,"480,520,623,928,602",33.45,-112.07,0
85026,STANDARD,Phoenix,AZ,Maricopa County,America/Phoenix,"602,623,480",33.45,-111.97,0
85027,STANDARD,Phoenix,AZ,Maricopa County,America/Phoenix,"928,623",33.68,-112.09,33130
85028,STANDARD,Phoenix,AZ,Maricopa County,America/Phoenix,"480,602",33.56,-112,18950
85029,STANDARD,Phoenix,AZ,Maricopa County,America/Phoenix,602,33.59,-112.1,38950
85031,STANDARD,Phoenix,AZ,Maricopa County,America/Phoenix,623,33.49,-112.16,27340
85032,STANDARD,Phoenix,AZ,Maricopa County,America/Phoenix,"480,602",33.62,-112,57380
85033,STANDARD,Phoenix,AZ,Maricopa County,America/Phoenix,"602,623",33.49,-112.21,52410
85034,STANDARD,Phoenix,AZ,Maricopa County,America/Phoenix,"480,520,602,623,928",33.43,-112.01,4150
85035,STANDARD,Phoenix,AZ,Maricopa County,America/Phoenix,"602,623",33.47,-112.19,45890
85037,STANDARD,Phoenix,AZ,Maricopa County,America/Phoenix,623,33.48,-112.25,47350
85039,STANDARD,Phoenix,AZ,Maricopa County,America/Phoenix,623,33.49,-112.28,0
85040,STANDARD,Phoenix,AZ,Maricopa County,America/Phoenix,"602,480,623",33.4,-112.02,28760
85041,STANDARD,Phoenix,AZ,Maricopa County,America/Phoenix,602,33.38,-112.11,58800
85042,STANDARD,Phoenix,AZ,Maricopa County,America/Phoenix,"623,480,602",33.37,-112.03,40100
85043,STANDARD,Phoenix,AZ,Maricopa County,America/Phoenix,"480,602,623,520",33.42,-112.2,33180
85044,STANDARD,Phoenix,AZ,Maricopa County,America/Phoenix,"602,520,480",33.35,-112.02,36100
85045,STANDARD,Phoenix,AZ,Maricopa County,America/Phoenix,"480,602,520",33.3,-112.1,7750
85048,STANDARD,Phoenix,AZ,Maricopa County,America/Phoenix,"480,520,602",33.31,-112.06,32940
85050,STANDARD,Phoenix,AZ,Maricopa County,America/Phoenix,480,33.69,-112,30120
85051,STANDARD,Phoenix,AZ,Maricopa County,America/Phoenix,623,33.55,-112.13,38990
85053,STANDARD,Phoenix,AZ,Maricopa County,America/Phoenix,"623,602",33.62,-112.13,26130
85054,STANDARD,Phoenix,AZ,Maricopa County,America/Phoenix,480,33.67,-111.95,7170
85055,STANDARD,Phoenix,AZ,Maricopa County,America/Phoenix,602,33.45,-111.97,0
85065,STANDARD,Phoenix,AZ,Maricopa County,America/Phoenix,"520,623,928,480,602",33.43,-112.05,0
85073,STANDARD,Phoenix,AZ,Maricopa County,America/Phoenix,"602,623,480,520,928",33.44,-112.07,0
85083,STANDARD,Phoenix,AZ,Maricopa County,America/Phoenix,602,33.73,-112.14,19410
85085,STANDARD,Phoenix,AZ,Maricopa County,America/Phoenix,"480,520,602,623,928",33.75,-112.09,26630
85086,STANDARD,Phoenix,AZ,Maricopa County,America/Phoenix,"602,623,928,480,520",33.83,-112.11,38060
